[{"Name":"Tiệm Sửa Xe Nam Thành","Address":"21/1, Lâm Văn Bền, P. Bình Thuận, Q. 7","Phone":"0983253913","Lat":10.7410032462814,"Long":106.715912794542,"Tag":"Tiem Sua Xe Nam Thanh 0983253913 21/1, LAM VAN BEN, P. BINH THUAN, Q. 7"},{"Name":"Cửa Hàng Phụ Tùng Honda Thành Tính","Address":"332-334, Nguyễn Chí Thanh, P. 5, Q. 10","Phone":"(08)38552291","Lat":10.7594966245406,"Long":106.667091226064,"Tag":"Cua Hang Phu Tung Honda Thanh Tinh (08)38552291 332-334, NGUYEN CHI THANH, P. 5, Q. 10"},{"Name":"Cửa Hàng Phụ Tùng Honda Trung Nghĩa","Address":"466A, Nguyễn Chí Thanh, P. 6, Q. 10","Phone":"(08)38563062","Lat":10.7589906936802,"Long":106.664253448927,"Tag":"Cua Hang Phu Tung Honda Trung Nghia (08)38563062 466A, NGUYEN CHI THANH, P. 6, Q. 10"},{"Name":"Cửa Hàng Phụ Tùng Honda Cưởng","Address":"53, Đặng Văn Bi, P. Trường Thọ, Q. Thủ Đức","Phone":"","Lat":10.8403450342175,"Long":106.765887712896,"Tag":"Cua Hang Phu Tung Honda Cuong  53, Dang Van Bi, P. truong Tho, Q. thu Duc"},{"Name":"Tiệm Sửa Xe Tân Honda","Address":"807, Phan Văn Trị, P. 7, Q. Gò Vấp","Phone":"0907721298","Lat":10.8289802534426,"Long":106.683023547609,"Tag":"Tiem Sua Xe Tan Honda 0907721298 807, PHAN VAN TRI, P. 7, Q. GO VAP"},{"Name":"Tiệm Sửa Xe Duy Phước","Address":"19, Lương Định Của, P. Bình Khánh, Q. 2","Phone":"(08)37403815","Lat":10.7847077697045,"Long":106.728723024794,"Tag":"Tiem Sua Xe Duy Phuoc (08)37403815 19, LUONG DINH CUA, P. BINH KHANH, Q. 2"},{"Name":"Tiệm Sửa Chữa Honda Tý","Address":"C27/4H, Trần Não, P. Bình Khánh, Q. 2","Phone":"(08)54020902","Lat":10.7834693952847,"Long":106.729189729163,"Tag":"Tiem Sua Chua Honda Ty (08)54020902 C27/4h, Tran Nao, P. binh Khanh, Q. 2"},{"Name":"Tiệm Sửa Honda Phước","Address":"543B/5, Nguyễn Huy Điển, P. 7, Q. Gò Vấp","Phone":"0907870035","Lat":10.8297705859504,"Long":106.682079410036,"Tag":"Tiem Sua Honda Phuoc 0907870035 543B/5, NGUYEN HUY DIEN, P. 7, Q. GO VAP"},{"Name":"Tiệm Sửa Honda Đại Phát","Address":"97, Lê Đức Thọ, P. 7, Q. Gò Vấp","Phone":"(08)54464703","Lat":10.8355873690381,"Long":106.681210374316,"Tag":"Tiem Sua Honda Dai Phat (08)54464703 97, LE DUC THO, P. 7, Q. GO VAP"},{"Name":"Cửa Hàng Phụ Tùng Honda - Xe Đạp 48","Address":"48, Nguyễn Văn Đậu, P. 6, Q. Bình Thạnh","Phone":"(08)62975539","Lat":10.8069818290573,"Long":106.687272166688,"Tag":"Cua Hang Phu Tung Honda - Xe Dap 48 (08)62975539 48, NGUYEN VAN DAU, P. 6, Q. BINH THANH"},{"Name":"Tiệm Sửa Xe Honda Tuấn","Address":"22/20, Đinh Bộ Lĩnh, P. 15, Q. Bình Thạnh","Phone":"(08)35123375","Lat":10.8024080618578,"Long":106.709303831531,"Tag":"Tiem Sua Xe Honda Tuan (08)35123375 22/20, DINH BO LINH, P. 15, Q. BINH THANH"},{"Name":"Cửa Hàng Xe Máy Honda Ủy Nhiệm - Head Văn Hơn (Visacoop)","Address":"27/6, Nguyễn Ảnh Thủ, X. Bà Điểm, H. Hóc Môn","Phone":"(08)62549616","Lat":10.854886265994,"Long":106.606950735546,"Tag":"Cua Hang Xe May Honda Uy Nhiem - Head Van Hon (Visacoop) (08)62549616 27/6, NGUYEN ANH THU, X. BA DIEM, H. HOC MON"},{"Name":"Cửa Hàng Phụ Tùng Xe Honda Tâm","Address":"132, Hoàng Diệu, P. 9, Q. 4","Phone":"0908886391","Lat":10.7632805388462,"Long":106.703563904241,"Tag":"Cua Hang Phu Tung Xe Honda Tam 0908886391 132, HOANG DIEU, P. 9, Q. 4"},{"Name":"Cửa Hàng Phụ Tùng Honda Hồng Biển","Address":"685, Xô Viết Nghệ Tĩnh, P. 26, Q. Bình Thạnh","Phone":"(08)38981964","Lat":10.8122194446001,"Long":106.715177869272,"Tag":"Cua Hang Phu Tung Honda Hong Bien (08)38981964 685, XO VIET NGHE TINH, P. 26, Q. BINH THANH"},{"Name":"Cửa Hàng Phụ Tùng Honda Biển","Address":"537A, Xô Viết Nghệ Tĩnh, P. 26, Q. Bình Thạnh","Phone":"(08)38996256","Lat":10.8087048776608,"Long":106.711868023349,"Tag":"Cua Hang Phu Tung Honda Bien (08)38996256 537A, XO VIET NGHE TINH, P. 26, Q. BINH THANH"},{"Name":"Tiệm Sửa Honda Tuấn","Address":"41/5, Phạm Văn Chiêu, P. 9, Q. Gò Vấp","Phone":"(08)62954339","Lat":10.8468307216961,"Long":106.645429706065,"Tag":"Tiem Sua Honda Tuan (08)62954339 41/5, PHAM VAN CHIEU, P. 9, Q. GO VAP"},{"Name":"Cửa Hàng Xe Máy Honda Ủy Nhiệm - Head Tân Long Vân","Address":"Ôx1, Quốc Lộ 22, X. Tân Thới Nhì, H. Hóc Môn","Phone":"(08)37132501","Lat":10.8928323843499,"Long":106.580960130198,"Tag":"Cua Hang Xe May Honda Uy Nhiem - Head Tan Long Van (08)37132501 OX1, QUOC LO 22, X. TAN THOI NHI, H. HOC MON"},{"Name":"Cửa Hàng Phụ Tùng Xe Honda Phát Tài","Address":"128A, Cách Mạng Tháng 8, P. 10, Q. 3","Phone":"(08)38465346","Lat":10.7780099477128,"Long":106.681231831988,"Tag":"Cua Hang Phu Tung Xe Honda Phat Tai (08)38465346 128A, CACH MANG THANG 8, P. 10, Q. 3"},{"Name":"Tiệm Sửa Honda Tỷ & Phú","Address":"168, Trần Nhân Tôn, P. 2, Q. 10","Phone":"0908423619","Lat":10.7662791781434,"Long":106.673887943707,"Tag":"Tiem Sua Honda Ty & Phu 0908423619 168, TRAN NHAN TON, P. 2, Q. 10"},{"Name":"Tiệm Phụ Tùng Xe Honda Đông","Address":"468, Lê Văn Lương, P. Tân Phong, Q. 7","Phone":"","Lat":10.735674792864,"Long":106.702710961774,"Tag":"Tiem Phu Tung Xe Honda Dong  468, LE VAN LUONG, P. TAN PHONG, Q. 7"},{"Name":"Tiệm Sửa Xe Máy Quý","Address":"20B, Lê Văn Lương, P. Tân Phong, Q. 7","Phone":"(08)37761004","Lat":10.7266989561568,"Long":106.698719834761,"Tag":"Tiem Sua Xe May Quy (08)37761004 20B, LE VAN LUONG, P. TAN PHONG, Q. 7"},{"Name":"Tiệm Sửa Honda Tuấn","Address":"276, Nguyễn Duy Dương, P. 4, Q. 10","Phone":"0913608708","Lat":10.7637917325407,"Long":106.67036888548,"Tag":"Tiem Sua Honda Tuan 0913608708 276, NGUYEN DUY DUONG, P. 4, Q. 10"},{"Name":"Tiệm Sửa Honda Tú","Address":"11, Nguyễn Cửu Đàm, P. Tân Sơn Nhì, Q. Tân Phú","Phone":"0908742704","Lat":10.7986720643755,"Long":106.631149625273,"Tag":"Tiem Sua Honda Tu 0908742704 11, NGUYEN CUU DAM, P. TAN SON NHI, Q. TAN PHU"},{"Name":"Tiệm Sửa Honda Chiêu","Address":"455, Nguyễn Kiệm, P. 9, Q. Phú Nhuận","Phone":"0919514345","Lat":10.8016492734644,"Long":106.679316734751,"Tag":"Tiem Sua Honda Chieu 0919514345 455, NGUYEN KIEM, P. 9, Q. PHU NHUAN"},{"Name":"Cửa Hàng Phụ Tùng Honda Hoàng Thành","Address":"30, Lê Văn Việt, P. Hiệp Phú, Q. 9","Phone":"(08)37305792","Lat":10.8478791664986,"Long":106.775479292331,"Tag":"Cua Hang Phu Tung Honda Hoang Thanh (08)37305792 30, LE VAN VIET, P. HIEP PHU, Q. 9"},{"Name":"Cửa Hàng Phụ Tùng Honda Cường","Address":"321, Phan Đình Phùng, P. 15, Q. Phú Nhuận","Phone":"","Lat":10.7981556605038,"Long":106.680786585291,"Tag":"Cua Hang Phu Tung Honda Cuong  321, PHAN DINH PHUNG, P. 15, Q. PHU NHUAN"},{"Name":"Cửa Hàng Honda Bình","Address":"617B, Tỉnh Lộ 10, P. Bình Trị Đông B, Q. Bình Tân","Phone":"0913151882","Lat":10.7578154551762,"Long":106.614611124491,"Tag":"Cua Hang Honda Binh 0913151882 617B, TINH LO 10, P. BINH TRI DONG B, Q. BINH TAN"},{"Name":"Tiệm Sửa Xe Honda Phúc","Address":"48/10T, Phạm Văn Chiêu, P. 9, Q. Gò Vấp","Phone":"0913876909","Lat":10.8476052013774,"Long":106.6470765824,"Tag":"Tiem Sua Xe Honda Phuc 0913876909 48/10T, PHAM VAN CHIEU, P. 9, Q. GO VAP"},{"Name":"Tiệm Sửa Honda Hải Hưng","Address":"54/6, Phạm Văn Chiêu, P. 13, Q. Gò Vấp","Phone":"0907103275","Lat":10.8526735154793,"Long":106.661410307372,"Tag":"Tiem Sua Honda Hai Hung 0907103275 54/6, PHAM VAN CHIEU, P. 13, Q. GO VAP"},{"Name":"Tiệm Sửa Xe Honda Tư Đồng","Address":"22/13A, Phạm Văn Chiêu, P. 13, Q. Gò Vấp","Phone":"0909739425","Lat":10.8514090792579,"Long":106.656614517655,"Tag":"Tiem Sua Xe Honda Tu Dong 0909739425 22/13A, PHAM VAN CHIEU, P. 13, Q. GO VAP"},{"Name":"Tiệm Sửa Xe Honda Quyết","Address":"11/7, Phạm Văn Chiêu, P. 14, Q. Gò Vấp","Phone":"","Lat":10.8513037093314,"Long":106.655960058655,"Tag":"Tiem Sua Xe Honda Quyet  11/7, PHAM VAN CHIEU, P. 14, Q. GO VAP"},{"Name":"Cửa Hàng Honda Sơn","Address":"44/1C, Phạm Văn Chiêu, P. 14, Q. Gò Vấp","Phone":"","Lat":10.8487484772405,"Long":106.649195527521,"Tag":"Cua Hang Honda Son  44/1C, PHAM VAN CHIEU, P. 14, Q. GO VAP"},{"Name":"Tiệm Sửa Xe Honda Thủy","Address":"59/6, Phạm Văn Chiêu, P. 14, Q. Gò Vấp","Phone":"","Lat":10.8443228689651,"Long":106.640204762905,"Tag":"Tiem Sua Xe Honda Thuy  59/6, PHAM VAN CHIEU, P. 14, Q. GO VAP"},{"Name":"Tiệm Sửa Honda Gia Kỳ","Address":"60/5E, Phạm Văn Chiêu, P. 14, Q. Gò Vấp","Phone":"0907166257","Lat":10.8443228689651,"Long":106.640204762905,"Tag":"Tiem Sua Honda Gia Ky 0907166257 60/5E, PHAM VAN CHIEU, P. 14, Q. GO VAP"},{"Name":"Tiệm Sửa Xe Cường Honda","Address":"60/6D, Phạm Văn Chiêu, P. 14, Q. Gò Vấp","Phone":"01285991599","Lat":10.8443228689651,"Long":106.640204762905,"Tag":"Tiem Sua Xe Cuong Honda 01285991599 60/6D, PHAM VAN CHIEU, P. 14, Q. GO VAP"},{"Name":"Tiệm Sửa Honda Tân Thành","Address":"476, Phan Huy Ích, P. 12, Q. Gò Vấp","Phone":"0906623618","Lat":10.8435589180511,"Long":106.639652227848,"Tag":"Tiem Sua Honda Tan Thanh 0906623618 476, PHAN HUY ICH, P. 12, Q. GO VAP"},{"Name":"Tiệm Sửa Xe Honda Thanh","Address":"597, Tân Kỳ Tân Quý, P. Tân Quý, Q. Tân Phú","Phone":"","Lat":10.7971491973458,"Long":106.614353632426,"Tag":"Tiem Sua Xe Honda Thanh  597, TAN KY TAN QUY, P. TAN QUY, Q. TAN PHU"},{"Name":"Cửa Hàng Xe Máy Honda Ủy Nhiệm - Head Phát Tiến","Address":"46, Nơ Trang Long, P. 14, Q. Bình Thạnh","Phone":"(08)22477339","Lat":10.8062388600936,"Long":106.695034479575,"Tag":"Cua Hang Xe May Honda Uy Nhiem - Head Phat Tien (08)22477339 46, NO TRANG LONG, P. 14, Q. BINH THANH"},{"Name":"Cửa Hàng Phụ Tùng Honda Cường Phượng","Address":"121, Ký Con, P. Nguyễn Thái Bình, Q. 1","Phone":"","Lat":10.7672752046296,"Long":106.698440885023,"Tag":"Cua Hang Phu Tung Honda Cuong Phuong  121, KY CON, P. NGUYEN THAI BINH, Q. 1"},{"Name":"Cửa Hàng Phụ Tùng Honda Phương Toàn","Address":"344, Lũy Bán Bích, P. Hòa Thạnh, Q. Tân Phú","Phone":"(08)38609422","Lat":10.7754962498481,"Long":106.633354401083,"Tag":"Cua Hang Phu Tung Honda Phuong Toan (08)38609422 344, LUY BAN BICH, P. HOA THANH, Q. TAN PHU"},{"Name":"Cửa Hàng Xe Máy Honda Ủy Nhiệm - Head Tường Nguyên 1","Address":"3A, Đinh Bộ Lĩnh, P. 26, Q. Bình Thạnh","Phone":"(08)35115067","Lat":10.8035883955475,"Long":106.709368204547,"Tag":"Cua Hang Xe May Honda Uy Nhiem - Head Tuong Nguyen 1 (08)35115067, (08)35116018 3A, DINH BO LINH, P. 26, Q. BINH THANH"},{"Name":"Cửa Hàng Xe Máy Honda Ủy Nhiệm - Phát Tiến 3","Address":"736 (Số Cũ 68), Cách Mạng Tháng 8, P. 5, Q. Tân Bình","Phone":"(08)39907920","Lat":10.7879222497227,"Long":106.662735318625,"Tag":"Cua Hang Xe May Honda Uy Nhiem - Phat Tien 3 (08)39907920, (08)39934736 736 (SO CU 68), CACH MANG THANG 8, P. 5, Q. TAN BINH"},{"Name":"Cửa Hàng Xe Máy Honda Ủy Nhiệm - Head Phát Tiến 5","Address":"404-406, Lê Trọng Tấn, P. Tây Thạnh, Q. Tân Phú","Phone":"(08)38165130","Lat":10.8083623764326,"Long":106.618655895684,"Tag":"Cua Hang Xe May Honda Uy Nhiem - Head Phat Tien 5 (08)38165130, (08)38165131 404-406, LE TRONG TAN, P. TAY THANH, Q. TAN PHU"},{"Name":"Cửa Hàng Xe Máy Honda Ủy Nhiệm - Head Phát Tiến 1 (Phatico)","Address":"17, Nơ Trang Long, P. 7, Q. Bình Thạnh","Phone":"(08)38030781","Lat":10.8064549009039,"Long":106.695045208411,"Tag":"Cua Hang Xe May Honda Uy Nhiem - Head Phat Tien 1 (Phatico) (08)38030781, (08)38410878 17, NO TRANG LONG, P. 7, Q. BINH THANH"},{"Name":"Cửa Hàng Xe Máy Honda Ủy Nhiệm - Head Newtatco 2","Address":"4, Cộng Hòa, P. 4, Q. Tân Bình","Phone":"(08)38445922","Lat":10.8007324015978,"Long":106.661431765044,"Tag":"Cua Hang Xe May Honda Uy Nhiem - Head Newtatco 2 (08)38445922 4, CONG HOA, P. 4, Q. TAN BINH"},{"Name":"Phụ Tùng Honda Mai Lang","Address":"134, Dương Tử Giang, P. 15, Q. 5","Phone":"(08)62610256","Lat":10.7560446835792,"Long":106.654629682984,"Tag":"Phu Tung Honda Mai Lang (08)62610256 134, DUONG TU GIANG, P. 15, Q. 5"},{"Name":"Cửa Hàng Xe Máy Honda Ủy Nhiệm - Head Fococev 3","Address":"50-52-54-56, Nguyễn Tất Thành, P. 12, Q. 4","Phone":"(08)38263950","Lat":10.7661421583691,"Long":106.706728910877,"Tag":"Cua Hang Xe May Honda Uy Nhiem - Head Fococev 3 (08)38263950, (08)38263949 50-52-54-56, NGUYEN TAT THANH, P. 12, Q. 4"},{"Name":"Cửa Hàng Xe Máy Honda Ủy Nhiệm - Head Liên Hiệp Thành 2","Address":"161, Nguyễn Chí Thanh, P. 12, Q. 5","Phone":"(08)38561669","Lat":10.7590592052006,"Long":106.664714788878,"Tag":"Cua Hang Xe May Honda Uy Nhiem - Head Lien Hiep Thanh 2 (08)38561669 161, NGUYEN CHI THANH, P. 12, Q. 5"},{"Name":"Cửa Hàng Xe Máy Honda Ủy Nhiệm - Head Minh Khang 1","Address":"9-11E, Trần Phú, P. 4, Q. 5","Phone":"(08)38353817","Lat":10.7636810618144,"Long":106.680003380259,"Tag":"Cua Hang Xe May Honda Uy Nhiem - Head Minh Khang 1 (08)38353817 9-11E, TRAN PHU, P. 4, Q. 5"},{"Name":"Cửa Hàng Honda Ủy Nhiệm - Head Liên Hiệp Thành 1","Address":"707, Hồng Bàng, P. 6, Q. 6","Phone":"(08)39694406","Lat":10.7536836386114,"Long":106.646824454752,"Tag":"Cua Hang Honda Uy Nhiem - Head Lien Hiep Thanh 1 (08)39694406 707, HONG BANG, P. 6, Q. 6"},{"Name":"Đại Lý Sửa Chữa Bảo Hành Honda","Address":"330, Huỳnh Tấn Phát, P. Tân Thuận Tây, Q. 7","Phone":"(08)38721860","Lat":10.7497098738884,"Long":106.728658651778,"Tag":"Honda Warranty Agent (08)38721860 330, Huynh Tan Phat, P. tan Thuan Tay, Q. 7"},{"Name":"Đại Lý Sửa Chữa Bảo Hành Honda","Address":"116/4, Trường Chinh, P. Đông Hưng Thuận, Q. 12","Phone":"(08)37191373","Lat":10.8278474398783,"Long":106.62492690036,"Tag":"Honda Warranty Agent (08)37191373 116/4, Truong Chinh, P. dong Hung Thuan, Q. 12"},{"Name":"Đại Lý Sửa Chữa Bảo Hành Honda (Osc)","Address":"184, Hoàng Văn Thụ, P. 9, Q. Phú Nhuận","Phone":"(08)38478411","Lat":10.7995625954973,"Long":106.675164675197,"Tag":"Honda Warranty Agent (Osc) (08)38478411 184, HOANG VAN THU, P. 9, Q. PHU NHUAN"},{"Name":"Cửa Hàng Xe Máy Honda Ủy Nhiệm - Head Long Bảo","Address":"672, Lê Quang Định, P. 1, Q. Gò Vấp","Phone":"(08)39859255","Lat":10.8206078697198,"Long":106.689401840645,"Tag":"Cua Hang Xe May Honda Uy Nhiem - Head Long Bao (08)39859255 672, LE QUANG DINH, P. 1, Q. GO VAP"},{"Name":"Cửa Hàng Xe Máy Honda Ủy Nhiệm - Head Lai Xuân Thịnh","Address":"198, Quốc Lộ 13, P. 26, Q. Bình Thạnh","Phone":"(08)22411668","Lat":10.8149910230752,"Long":106.712876533938,"Tag":"Cua Hang Xe May Honda Uy Nhiem - Head Lai Xuan Thinh (08)22411668 198, QUOC LO 13, P. 26, Q. BINH THANH"},{"Name":"Cửa Hàng Xe Máy Honda Ủy Nhiệm - Head Sơn Minh 1","Address":"276-278-280, Lý Tự Trọng, P. Bến Thành, Q. 1","Phone":"(08)38224619","Lat":10.7715702017609,"Long":106.693650459724,"Tag":"Cua Hang Xe May Honda Uy Nhiem - Head Son Minh 1 (08)38224619 276-278-280, LY TU TRONG, P. BEN THANH, Q. 1"},{"Name":"Cửa Hàng Xe Máy Honda Ủy Nhiệm - Head Sơn Minh 2","Address":"50, Lê Văn Việt, P. Hiệp Phú, Q. 9","Phone":"(08)39125623","Lat":10.8459034508678,"Long":106.778874968943,"Tag":"Cua Hang Xe May Honda Uy Nhiem - Head Son Minh 2 (08)39125623 50, LE VAN VIET, P. HIEP PHU, Q. 9"},{"Name":"Cửa Hàng Xe Máy Honda Ủy Nhiệm - Head Dân Phương","Address":"1C-1D, 3 Tháng 2, P. 11, Q. 10","Phone":"(08)38341497","Lat":10.777456619796,"Long":106.681290840586,"Tag":"Cua Hang Xe May Honda Uy Nhiem - Head Dan Phuong (08)38341497 1C-1D, 3 THANG 2, P. 11, Q. 10"},{"Name":"Cửa Hàng Phụ Tùng Honda Hương Dũ","Address":"310, Nguyễn Sơn, P. Phú Thọ Hòa, Q. Tân Phú","Phone":"(08)38608446","Lat":10.7837381493153,"Long":106.623896932098,"Tag":"Cua Hang Phu Tung Honda Huong Du (08)38608446, (08)39786816 310, NGUYEN SON, P. PHU THO HOA, Q. TAN PHU"},{"Name":"Cửa Hàng Xe Máy Honda Ủy Nhiệm - Head Tân Long Vân 3","Address":"135, Nguyễn Sơn, P. Phú Thạnh, Q. Tân Phú","Phone":"(08)39787979","Lat":10.7823732979282,"Long":106.627888059112,"Tag":"Cua Hang Xe May Honda Uy Nhiem - Head Tan Long Van 3 (08)39787979 135, NGUYEN SON, P. PHU THANH, Q. TAN PHU"},{"Name":"Cửa Hàng Phụ Tùng Honda Gia Minh","Address":"223, Bà Hạt, P. 4, Q. 10","Phone":"(08)39272800","Lat":10.7661052684193,"Long":106.669446205579,"Tag":"Cua Hang Phu Tung Honda Gia Minh (08)39272800 223, BA HAT, P. 4, Q. 10"},{"Name":"Cửa Hàng Honda Hoàng","Address":"122, Ký Con, P. Nguyễn Thái Bình, Q. 1","Phone":"(08)38215981","Lat":10.7673384442954,"Long":106.698344325499,"Tag":"Cua Hang Honda Hoang (08)38215981 122, KY CON, P. NGUYEN THAI BINH, Q. 1"},{"Name":"Cửa Hàng Phụ Tùng Honda Định","Address":"535-537, Trường Chinh, P. Tân Thới Nhất, Q. 12","Phone":"(08)37190723","Lat":10.840165898693,"Long":106.616697883104,"Tag":"Cua Hang Phu Tung Honda Dinh (08)37190723 535-537, Truong Chinh, P. tan Thoi Nhat, Q. 12"},{"Name":"Tiệm Sửa Honda Tân Trang","Address":"1008, Âu Cơ, P. 14, Q. Tân Bình","Phone":"(08)39004731","Lat":10.798961882486,"Long":106.637404536694,"Tag":"Tiem Sua Honda Tan Trang (08)39004731 1008, AU CO, P. 14, Q. TAN BINH"},{"Name":"Cửa Hàng Xe Máy Honda Ủy Nhiệm - Head Dũng Oanh","Address":"2A-4-6, Lê Văn Quới, P. Bình Hưng Hòa A, Q. Bình Tân","Phone":"(08)39783705","Lat":10.7737782807426,"Long":106.621284460518,"Tag":"Cua Hang Xe May Honda Uy Nhiem - Head Dung Oanh (08)39783705 2A-4-6, LE VAN QUOI, P. BINH HUNG HOA A, Q. BINH TAN"},{"Name":"Trung Tâm Sửa Chữa Bảo Trì Xe Honda & Phụ Tùng Tươi","Address":"140, Nguyễn Thị Thập, P. Bình Thuận, Q. 7","Phone":"(08)37717551","Lat":10.7381677407311,"Long":106.719791268777,"Tag":"Trung Tam Sua Chua Bao Tri Xe Honda & Phu Tung Tuoi (08)37717551 140, NGUYEN THI THAP, P. BINH THUAN, Q. 7"},{"Name":"Tiệm Sửa Xe Honda Tay Ga Quốc Thống","Address":"100, Lê Văn Chí, P. Linh Trung, Q. Thủ Đức","Phone":"(08)37242451","Lat":10.8533900269635,"Long":106.773430084645,"Tag":"Tiem Sua Xe Honda Tay Ga Quoc Thong (08)37242451 100, LE VAN CHI, P. LINH TRUNG, Q. THU DUC"},{"Name":"Tiệm Sửa Xe Hưng","Address":"243, Lâm Văn Bền, P. Bình Thuận, Q. 7","Phone":"(08)37713157","Lat":10.7407081019633,"Long":106.715869879198,"Tag":"Tiem Sua Xe Hung (08)37713157 243, LAM VAN BEN, P. BINH THUAN, Q. 7"},{"Name":"Tiệm Sửa Xe Honda Bảo Hưng","Address":"673, Tân Kỳ Tân Quý, P. Bình Hưng Hòa A, Q. Bình Tân","Phone":"(08)37503207","Lat":10.7931654671573,"Long":106.607851957775,"Tag":"Tiem Sua Xe Honda Bao Hung (08)37503207 673, TAN KY TAN QUY, P. BINH HUNG HOA A, Q. BINH TAN"},{"Name":"Cửa Hàng Xe Máy Honda Ủy Nhiệm - Head Sài Gòn Viễn Đông","Address":"673, Huỳnh Tấn Phát, P. Tân Thuận Đông, Q. 7","Phone":"(08)37733893","Lat":10.7379305689863,"Long":106.73042354531,"Tag":"Cua Hang Xe May Honda Uy Nhiem - Head Sai Gon Vien Dong (08)37733893, (08)37733724 673, HUYNH TAN PHAT, P. TAN THUAN DONG, Q. 7"},{"Name":"Cửa Hàng Xe Máy Honda Ủy Nhiệm - Head Lê Kim Long","Address":"330, Huỳnh Tấn Phát, P. Tân Thuận Tây, Q. 7","Phone":"(08)38721860","Lat":10.7498100091859,"Long":106.72865328736,"Tag":"Cua Hang Xe May Honda Uy Nhiem - Head Le Kim Long (08)38721860, (08)62622056 330, HUYNH TAN PHAT, P. TAN THUAN TAY, Q. 7"},{"Name":"Cửa Hàng Xe Máy Honda Ủy Nhiệm - Head Thiên Nam Phương","Address":"2, Trường Chinh, P. Tây Thạnh, Q. Tân Phú","Phone":"(08)38150334","Lat":10.8177520377636,"Long":106.631262278052,"Tag":"Cua Hang Xe May Honda Uy Nhiem - Head Thien Nam Phuong (08)38150334, (08)38150335 2, TRUONG CHINH, P. TAY THANH, Q. TAN PHU"},{"Name":"Cửa Hàng Xe Máy Honda Ủy Nhiệm - Head Phú Thành 2","Address":"148, Lê Văn Sỹ, P. 10, Q. Phú Nhuận","Phone":"(08)38443799","Lat":10.7922696475406,"Long":106.671055530987,"Tag":"Cua Hang Xe May Honda Uy Nhiem - Head Phu Thanh 2 (08)38443799 148, LE VAN SY, P. 10, Q. PHU NHUAN"},{"Name":"Cửa Hàng Xe Máy Honda - Tân Bình Nguyên 2","Address":"633-635, Phạm Thế Hiển, P. 4, Q. 8","Phone":"(08)38521108","Lat":10.7457624085858,"Long":106.676972484073,"Tag":"Cua Hang Xe May Honda - Tan Binh Nguyen 2 (08)38521108 633-635, PHAM THE HIEN, P. 4, Q. 8"},{"Name":"Cửa Hàng Xe Máy Honda Ủy Nhiệm - Head Đông Hà","Address":"116/4, Trường Chinh, P. Tân Hưng Thuận, Q. 12","Phone":"(08)37191373","Lat":10.8357981199271,"Long":106.619841432069,"Tag":"Cua Hang Xe May Honda Uy Nhiem - Head Dong Ha (08)37191373 116/4, TRUONG CHINH, P. TAN HUNG THUAN, Q. 12"},{"Name":"Cửa Hàng Xe Máy Honda Ủy Nhiệm - Head Đông Hà 2","Address":"117A, Lê Văn Khương, P. Hiệp Thành, Q. 12","Phone":"(08)37177334","Lat":10.8661710386616,"Long":106.649651503054,"Tag":"Cua Hang Xe May Honda Uy Nhiem - Head Dong Ha 2 (08)37177334 117A, LE VAN KHUONG, P. HIEP THANH, Q. 12"},{"Name":"Cửa Hàng Xe Máy Honda Ủy Nhiệm - Head Timexco","Address":"105-107, Kha Vạn Cân, P. Linh Tây, Q. Thủ Đức","Phone":"(08)38971517","Lat":10.8503343042641,"Long":106.754515146676,"Tag":"Cua Hang Xe May Honda Uy Nhiem - Head Timexco (08)38971517 105-107, KHA VAN CAN, P. LINH TAY, Q. THU DUC"},{"Name":"Cửa Hàng Xe Máy Honda Ủy Nhiệm - Head Bình Minh","Address":"638, Quốc Lộ 22, Tt. Củ Chi, H. Củ Chi","Phone":"(08)54390727","Lat":10.9659873481882,"Long":106.492554521087,"Tag":"Cua Hang Xe May Honda Uy Nhiem - Head Binh Minh (08)54390727 638, QUOC LO 22, TT. CU CHI, H. CU CHI"},{"Name":"Tiệm Sửa Chữa Xe Honda Hữu Lợi","Address":"76B, Phan Huy Ích, P. 15, Q. Tân Bình","Phone":"0907263657","Lat":10.8275154983479,"Long":106.631664609404,"Tag":"Tiem Sua Chua Xe Honda Huu Loi 0907263657 76B, PHAN HUY ICH, P. 15, Q. TAN BINH"},{"Name":"Cửa Hàng Phụ Tùng Honda Tuấn Hưng","Address":"12, Nguyễn Phúc Nguyên, P. 9, Q. 3","Phone":"","Lat":10.7799966500403,"Long":106.680094575366,"Tag":"Cua Hang Phu Tung Honda Tuan Hung  12, NGUYEN PHUC NGUYEN, P. 9, Q. 3"},{"Name":"Tiệm Sửa Honda Tài","Address":"368/870, Hoàng Sa, P. 5, Q. Tân Bình","Phone":"(08)39934031","Lat":10.7932181623457,"Long":106.659441565956,"Tag":"Tiem Sua Honda Tai (08)39934031 368/870, HOANG SA, P. 5, Q. TAN BINH"},{"Name":"Tiệm Sửa Xe Honda Dũng","Address":"255, Vườn Lài, P. Phú Thọ Hòa, Q. Tân Phú","Phone":"0935410459","Lat":10.7877799701863,"Long":106.628108000251,"Tag":"Tiem Sua Xe Honda Dung 0935410459 255, VUON LAI, P. PHU THO HOA, Q. TAN PHU"},{"Name":"Cửa Hàng Phụ Tùng Honda A Dinh","Address":"354, Bạch Đằng, P. 14, Q. Bình Thạnh","Phone":"","Lat":10.8031879257086,"Long":106.699631785826,"Tag":"Cua Hang Phu Tung Honda A Dinh  354, BACH DANG, P. 14, Q. BINH THANH"},{"Name":"Tiệm Sửa Xe Honda Thanh Tùng","Address":"129Z, Lê Văn Thọ, P. 11, Q. Gò Vấp","Phone":"","Lat":10.8475841271269,"Long":106.656909560646,"Tag":"Tiem Sua Xe Honda Thanh Tung  129Z, LE VAN THO, P. 11, Q. GO VAP"},{"Name":"Tiệm Sửa Honda Tài","Address":"218, Âu Cơ, P. 9, Q. Tân Bình","Phone":"","Lat":10.7724977023029,"Long":106.649576401201,"Tag":"Tiem Sua Honda Tai  218, AU CO, P. 9, Q. TAN BINH"},{"Name":"Tiệm Sửa Honda 185","Address":"185, Phạm Phú Thứ, P. 4, Q. 6","Phone":"(08)38544941","Lat":10.7416884016222,"Long":106.645499443499,"Tag":"Tiem Sua Honda 185 (08)38544941 185, PHAM PHU THU, P. 4, Q. 6"},{"Name":"Tiệm Sửa Honda Tùng","Address":"245, Âu Cơ, P. 5, Q. 11","Phone":"(08)22174650","Lat":10.7744053933006,"Long":106.648240661112,"Tag":"Tiem Sua Honda Tung (08)22174650 245, AU CO, P. 5, Q. 11"},{"Name":"Cửa Hàng Phụ Tùng Honda Hậu","Address":"151, Trần Quang Khải, P. Tân Định, Q. 1","Phone":"(08)38439324","Lat":10.7917743108416,"Long":106.690378164726,"Tag":"Cua Hang Phu Tung Honda Hau (08)38439324 151, TRAN QUANG KHAI, P. TAN DINH, Q. 1"},{"Name":"Tiệm 9 Sửa Honda","Address":"318, Bình Long, P. Phú Thọ Hòa, Q. Tân Phú","Phone":"(08)39781551","Lat":10.785008140604,"Long":106.618661260103,"Tag":"Tiem 9 Sua Honda (08)39781551 318, BINH LONG, P. PHU THO HOA, Q. TAN PHU"},{"Name":"Tiệm Sửa Xe Honda Phúc Hậu","Address":"290, Bình Long, P. Phú Thạnh, Q. Tân Phú","Phone":"0907778837","Lat":10.7845075222715,"Long":106.618784641717,"Tag":"Tiem Sua Xe Honda Phuc Hau 0907778837 290, BINH LONG, P. PHU THANH, Q. TAN PHU"},{"Name":"Cửa Hàng Phụ Tùng Honda Hai Toán","Address":"24/6, Nguyễn Thị Sóc, X. Bà Điểm, H. Hóc Môn","Phone":"0908993530","Lat":10.8482953822601,"Long":106.600223755338,"Tag":"Cua Hang Phu Tung Honda Hai Toan 0908993530 24/6, NGUYEN THI SOC, X. BA DIEM, H. HOC MON"},{"Name":"Tiệm Sửa Xe Honda Thanh Như","Address":"150, Trần Đại Nghĩa, P. Tân Tạo A, Q. Bình Tân","Phone":"","Lat":10.7269150540052,"Long":106.590294217567,"Tag":"Tiem Sua Xe Honda Thanh Nhu  150, TRAN DAI NGHIA, P. TAN TAO A, Q. BINH TAN"},{"Name":"Tiệm Sửa Honda Tuấn","Address":"34/1, Đường Số 23, P. Hiệp Bình Chánh, Q. Thủ Đức","Phone":"","Lat":10.8276999103547,"Long":106.727435564468,"Tag":"Tiem Sua Honda Tuan  34/1, DUONG SO 23, P. HIEP BINH CHANH, Q. THU DUC"},{"Name":"Tiệm Sửa Xe Honda Tiến Dũng","Address":"79A, Phú Thọ Hòa, P. Phú Thọ Hòa, Q. Tân Phú","Phone":"0918293535","Lat":10.783221719789,"Long":106.633831834287,"Tag":"Tiem Sua Xe Honda Tien Dung 0918293535 79A, PHU THO HOA, P. PHU THO HOA, Q. TAN PHU"},{"Name":"Cửa Hàng Phụ Tùng Xe Honda Thành Mỹ","Address":"462, Nguyễn Sơn, P. Phú Thọ Hòa, Q. Tân Phú","Phone":"","Lat":10.7846339943499,"Long":106.619063591455,"Tag":"Cua Hang Phu Tung Xe Honda Thanh My  462, NGUYEN SON, P. PHU THO HOA, Q. TAN PHU"},{"Name":"Tiệm Sửa Honda Bá Phước","Address":"28/4, Trường Chinh, P. Tây Thạnh, Q. Tân Phú","Phone":"(08)38155553","Lat":10.8130941280251,"Long":106.632667755575,"Tag":"Tiem Sua Honda Ba Phuoc (08)38155553 28/4, TRUONG CHINH, P. TAY THANH, Q. TAN PHU"},{"Name":"Tiệm Sửa Honda Vinh","Address":"8/4, Trường Chinh, P. Tây Thạnh, Q. Tân Phú","Phone":"","Lat":10.8105543775386,"Long":106.633536791296,"Tag":"Tiem Sua Honda Vinh  8/4, TRUONG CHINH, P. TAY THANH, Q. TAN PHU"},{"Name":"Cửa Hàng Phụ Tùng Honda Chí","Address":"100, Bành Văn Trân, P. 7, Q. Tân Bình","Phone":"","Lat":10.7883648967386,"Long":106.656888102974,"Tag":"Cua Hang Phu Tung Honda Chi  100, BANH VAN TRAN, P. 7, Q. TAN BINH"},{"Name":"Cửa Hàng Phụ Tùng Honda Toàn","Address":"41A, Phạm Văn Hai, P. 1, Q. Tân Bình","Phone":"(08)39910880","Lat":10.7959530299407,"Long":106.664162253821,"Tag":"Cua Hang Phu Tung Honda Toan (08)39910880 41A, PHAM VAN HAI, P. 1, Q. TAN BINH"},{"Name":"Tiệm Sửa Xe Honda Phương","Address":"512, Nguyễn Văn Quá, P. Đông Hưng Thuận, Q. 12","Phone":"","Lat":10.8398287021205,"Long":106.630039190741,"Tag":"Tiem Sua Xe Honda Phuong  512, NGUYEN VAN QUA, P. DONG HUNG THUAN, Q. 12"},{"Name":"Cửa Hàng Phụ Tùng Honda Minh Yến","Address":"982C, Tỉnh Lộ 43, P. Bình Chiểu, Q. Thủ Đức","Phone":"(08)37296181","Lat":10.8839560699378,"Long":106.72895369477,"Tag":"Cua Hang Phu Tung Honda Minh Yen (08)37296181 982C, TINH LO 43, P. BINH CHIEU, Q. THU DUC"},{"Name":"Cửa Hàng Phụ Tùng Honda Phúc","Address":"789, Tỉnh Lộ 43, P. Tam Bình, Q. Thủ Đức","Phone":"(08)37290236","Lat":10.8720977442121,"Long":106.733121847578,"Tag":"Cua Hang Phu Tung Honda Phuc (08)37290236 789, TINH LO 43, P. TAM BINH, Q. THU DUC"},{"Name":"Tiệm Sửa Honda Xuân","Address":"71, Lê Thị Hoa, P. Bình Chiểu, Q. Thủ Đức","Phone":"","Lat":10.8732303900956,"Long":106.735868429609,"Tag":"Tiem Sua Honda Xuan  71, LE THI HOA, P. BINH CHIEU, Q. THU DUC"},{"Name":"Cửa Hàng Xe Máy Honda Ủy Nhiệm - Head Tân Long Vân 4","Address":"167, Trần Quốc Thảo, P. 9, Q. 3","Phone":"(08)39312222","Lat":10.7851398821319,"Long":106.682744597872,"Tag":"Cua Hang Xe May Honda Uy Nhiem - Head Tan Long Van 4 (08)39312222 167, TRAN QUOC THAO, P. 9, Q. 3"},{"Name":"Cửa Hàng Phụ Tùng Honda Hồng","Address":"34, Bùi Hữu Nghĩa, P. 2, Q. Bình Thạnh","Phone":"(08)35100820","Lat":10.7945250000626,"Long":106.697781061606,"Tag":"Cua Hang Phu Tung Honda Hong (08)35100820 34, BUI HUU NGHIA, P. 2, Q. BINH THANH"},{"Name":"Cửa Hàng Phụ Tùng Honda Văn Hùng","Address":"487, Tỉnh Lộ 15, X. Tân Thạnh Đông, H. Củ Chi","Phone":"0906456161","Lat":10.9626431238377,"Long":106.594998812179,"Tag":"Cua Hang Phu Tung Honda Van Hung 0906456161 487, TINH LO 15, X. TAN THANH DONG, H. CU CHI"},{"Name":"Cửa Hàng Phụ Tùng Xe Đạp - Honda Dung","Address":"0, Lương Định Của, P. Bình Khánh, Q. 2","Phone":"","Lat":10.7852610842867,"Long":106.729667162368,"Tag":"Cua Hang Phu Tung Xe Dap - Honda Dung  0, LUONG DINH CUA, P. BINH KHANH, Q. 2"},{"Name":"Cửa Hàng Phụ Tùng Honda A Nhiều","Address":"1221C, Nguyễn Thị Định, P. Cát Lái, Q. 2","Phone":"(08)38872111","Lat":10.76386024297,"Long":106.782345747408,"Tag":"Cua Hang Phu Tung Honda A Nhieu (08)38872111 1221C, NGUYEN THI DINH, P. CAT LAI, Q. 2"},{"Name":"Tiệm Sửa Xe Honda 41","Address":"41, Dương Khuê, P. Hiệp Tân, Q. Tân Phú","Phone":"0937166400","Lat":10.7752380281239,"Long":106.631385659666,"Tag":"Tiem Sua Xe Honda 41 0937166400 41, DUONG KHUE, P. HIEP TAN, Q. TAN PHU"},{"Name":"Tiệm Sửa Honda Minh Tuấn","Address":"70-70A, Ấp Chiến Lược, P. Bình Trị Đông, Q. Bình Tân","Phone":"0909231726","Lat":10.7609827915333,"Long":106.619262074922,"Tag":"Tiem Sua Honda Minh Tuan 0909231726 70-70A, AP CHIEN LUOC, P. BINH TRI DONG, Q. BINH TAN"},{"Name":"Tiệm Sửa Honda Công","Address":"126, Dương Quảng Hàm, P. 5, Q. Gò Vấp","Phone":"(08)35881131","Lat":10.8263510656268,"Long":106.692448830085,"Tag":"Tiem Sua Honda Cong (08)35881131 126, DUONG QUANG HAM, P. 5, Q. GO VAP"},{"Name":"Cửa Hàng Phụ Tùng Honda Liên","Address":"4, Võ Văn Ngân, P. Trường Thọ, Q. Thủ Đức","Phone":"(08)38967188","Lat":10.8512562928523,"Long":106.755534386101,"Tag":"Cua Hang Phu Tung Honda Lien (08)38967188 4, VO VAN NGAN, P. TRUONG THO, Q. THU DUC"},{"Name":"Tiệm Sửa Xe Honda","Address":"2719, Phạm Thế Hiển, P. 7, Q. 8","Phone":"(08)39800155","Lat":10.7232360988459,"Long":106.635612821073,"Tag":"Tiem Sua Xe Honda (08)39800155 2719, PHAM THE HIEN, P. 7, Q. 8"},{"Name":"Tiệm Sửa Honda Hai","Address":"328, Phạm Hùng, P. 5, Q. 8","Phone":"","Lat":10.7386473541348,"Long":106.669918274365,"Tag":"Tiem Sua Honda Hai  328, PHAM HUNG, P. 5, Q. 8"},{"Name":"Cửa Hàng Honda Quang Vinh","Address":"596, Nguyễn Duy Trinh, P. Bình Trưng Đông, Q. 2","Phone":"","Lat":10.7883280095121,"Long":106.777024244724,"Tag":"Cua Hang Honda Quang Vinh  596, NGUYEN DUY TRINH, P. BINH TRUNG DONG, Q. 2"},{"Name":"Cửa Hàng Phụ Tùng Honda Thành","Address":"449, Tùng Thiện Vương, P. 12, Q. 8","Phone":"0903315157","Lat":10.7448664479918,"Long":106.657247518982,"Tag":"Cua Hang Phu Tung Honda Thanh 0903315157 449, TUNG THIEN VUONG, P. 12, Q. 8"},{"Name":"Tiệm Sửa Xe Honda Sơn","Address":"874, Hưng Phú, P. 10, Q. 8","Phone":"","Lat":10.7451984807573,"Long":106.663057183707,"Tag":"Tiem Sua Xe Honda Son  874, HUNG PHU, P. 10, Q. 8"},{"Name":"Tiệm Sửa Honda 709","Address":"709, Hưng Phú, P. 9, Q. 8","Phone":"","Lat":10.7461207920789,"Long":106.667734956228,"Tag":"Tiem Sua Honda 709  709, HUNG PHU, P. 9, Q. 8"},{"Name":"Tiệm Sửa Xe Honda Phong","Address":"413, Hưng Phú, P. 9, Q. 8","Phone":"0979669634","Lat":10.7470747225386,"Long":106.673147654019,"Tag":"Tiem Sua Xe Honda Phong 0979669634 413, HUNG PHU, P. 9, Q. 8"},{"Name":"Tiệm Sửa Xe Honda Viễn","Address":"0, Tô Ký, P. Đông Hưng Thuận, Q. 12","Phone":"","Lat":10.8490698581475,"Long":106.633107637853,"Tag":"Tiem Sua Xe Honda Vien  0, TO KY, P. DONG HUNG THUAN, Q. 12"},{"Name":"Tiệm Sửa Xe Honda Út","Address":"226, Tô Ký, X. Thới Tam Thôn, H. Hóc Môn","Phone":"","Lat":10.879151687386,"Long":106.609638308978,"Tag":"Tiem Sua Xe Honda Ut  226, TO KY, X. THOI TAM THON, H. HOC MON"},{"Name":"Cửa Hàng Phụ Tùng Honda Thuận Dung","Address":"A8, Quốc Lộ 1A, P. Linh Xuân, Q. Thủ Đức","Phone":"01222021866","Lat":10.8698219032033,"Long":106.776058649479,"Tag":"Cua Hang Phu Tung Honda Thuan Dung 01222021866 A8, QUOC LO 1A, P. LINH XUAN, Q. THU DUC"},{"Name":"Tiệm Sửa Xe Honda Nguyễn Huy","Address":"17/A5, Tô Ký, P. Trung Mỹ Tây, Q. 12","Phone":"0906831329","Lat":10.854175026544,"Long":106.625168299171,"Tag":"Tiem Sua Xe Honda Nguyen Huy 0906831329 17/A5, TO KY, P. TRUNG MY TAY, Q. 12"},{"Name":"Cửa Hàng Phụ Tùng Honda Ngọc Nghĩa","Address":"332, Nguyễn Tất Thành, P. 13, Q. 4","Phone":"(08)39404319","Lat":10.7605875350695,"Long":106.711546158267,"Tag":"Cua Hang Phu Tung Honda Ngoc Nghia (08)39404319 332, NGUYEN TAT THANH, P. 13, Q. 4"},{"Name":"Cửa Hàng Phụ Tùng Honda Lộc","Address":"879 (67/1A), Quang Trung, P. 14, Q. Gò Vấp","Phone":"0903816053","Lat":10.844559956783,"Long":106.639850711315,"Tag":"Cua Hang Phu Tung Honda Loc 0903816053 879 (67/1A), QUANG TRUNG, P. 14, Q. GO VAP"},{"Name":"Cửa Hàng Phụ Tùng Honda Xuân Hùng","Address":"89, Quốc Lộ 13, P. Hiệp Bình Chánh, Q. Thủ Đức","Phone":"0908604828","Lat":10.8287273465997,"Long":106.714131807757,"Tag":"Cua Hang Phu Tung Honda Xuan Hung 0908604828 89, QUOC LO 13, P. HIEP BINH CHANH, Q. THU DUC"},{"Name":"Trung Tâm Xe Máy Honda","Address":"102T, An Dương Vương, P. 9, Q. 5","Phone":"","Lat":10.756956421444,"Long":106.66996118971,"Tag":"Trung Tam Xe May Honda  102T, AN DUONG VUONG, P. 9, Q. 5"},{"Name":"Cửa Hàng Monbin Honda Hoàng Thành","Address":"4A3, Nguyễn Ảnh Thủ, P. Hiệp Thành, Q. 12","Phone":"(08)37175123","Lat":10.8765282089652,"Long":106.646196817843,"Tag":"Cua Hang Monbin Honda Hoang Thanh (08)37175123 4A3, NGUYEN ANH THU, P. HIEP THANH, Q. 12"},{"Name":"Tiệm Sửa Honda Thái","Address":"6, Nguyễn Văn Săng, P. Tân Sơn Nhì, Q. Tân Phú","Phone":"","Lat":10.7996363671878,"Long":106.636991476506,"Tag":"Tiem Sua Honda Thai  6, NGUYEN VAN SANG, P. TAN SON NHI, Q. TAN PHU"},{"Name":"Tiệm Sửa Xe Honda Bảy","Address":"16A, Lê Văn Khương, X. Đông Thạnh, H. Hóc Môn","Phone":"0909453789","Lat":10.8971361163293,"Long":106.646186089007,"Tag":"Tiem Sua Xe Honda Bay 0909453789 16A, LE VAN KHUONG, X. DONG THANH, H. HOC MON"},{"Name":"Cửa Hàng Phụ Tùng Honda Vân","Address":"20, Quốc Lộ 13, P. Hiệp Bình Chánh, Q. Thủ Đức","Phone":"(08)37266439","Lat":10.8241012212607,"Long":106.714045977068,"Tag":"Cua Hang Phu Tung Honda Van (08)37266439 20, QUOC LO 13, P. HIEP BINH CHANH, Q. THU DUC"},{"Name":"Cửa Hàng Xe Máy Honda Ủy Nhiệm - Head Nam Hải","Address":"41, Kinh Dương Vương, P. 12, Q. 6","Phone":"(08)38764435","Lat":10.7524187854915,"Long":106.632361983747,"Tag":"Cua Hang Xe May Honda Uy Nhiem - Head Nam Hai (08)38764435 41, KINH DUONG VUONG, P. 12, Q. 6"},{"Name":"Cửa Hàng Phụ Tùng Honda Bích Thủy","Address":"551A, Kinh Dương Vương, P. An Lạc, Q. Bình Tân","Phone":"(08)38571461","Lat":10.7353638317507,"Long":106.613538240885,"Tag":"Cua Hang Phu Tung Honda Bich Thuy (08)38571461 551A, KINH DUONG VUONG, P. AN LAC, Q. BINH TAN"},{"Name":"Tiệm Sửa Xe Honda Bé","Address":"121/5, Tô Ký, P. Tân Chánh Hiệp, Q. 12","Phone":"0909442793","Lat":10.8577470120144,"Long":106.619342541192,"Tag":"Tiem Sua Xe Honda Be 0909442793 121/5, TO KY, P. TAN CHANH HIEP, Q. 12"},{"Name":"Cửa Hàng Phụ Tùng Honda Sơn Hà","Address":"38/2B, Trung Mỹ Tây 13, P. Trung Mỹ Tây, Q. 12","Phone":"(08)62504329","Lat":10.8567670910477,"Long":106.616241907572,"Tag":"Cua Hang Phu Tung Honda Son Ha (08)62504329 38/2B, TRUNG MY TAY 13, P. TRUNG MY TAY, Q. 12"},{"Name":"Tiệm Rửa Xe Honda Tiến Dũng","Address":"0, Nguyễn Ảnh Thủ, P. Hiệp Thành, Q. 12","Phone":"0975023570","Lat":10.8796258075291,"Long":106.635982965917,"Tag":"Tiem Rua Xe Honda Tien Dung 0975023570 0, NGUYEN ANH THU, P. HIEP THANH, Q. 12"},{"Name":"Tiệm Sửa Xe Honda Thái Dương","Address":"9/1B, Nguyễn Ảnh Thủ, X. Bà Điểm, H. Hóc Môn","Phone":"","Lat":10.8458244219711,"Long":106.600180839994,"Tag":"Tiem Sua Xe Honda Thai Duong  9/1B, NGUYEN ANH THU, X. BA DIEM, H. HOC MON"},{"Name":"Tiệm Sửa Xe Máy Trường","Address":"49/5B, Nguyễn Ảnh Thủ, X. Bà Điểm, H. Hóc Môn","Phone":"","Lat":10.849011904239,"Long":106.601838445165,"Tag":"Tiem Sua Xe May Truong  49/5B, NGUYEN ANH THU, X. BA DIEM, H. HOC MON"},{"Name":"Cửa Hàng Phụ Tùng Honda Thanh Thanh","Address":"294, Quốc Lộ 50, P. 6, Q. 8","Phone":"(08)39810954","Lat":10.7337932097133,"Long":106.656061982598,"Tag":"Cua Hang Phu Tung Honda Thanh Thanh (08)39810954 294, QUOC LO 50, P. 6, Q. 8"},{"Name":"Cửa Hàng Phụ Tùng Honda Minh Chính","Address":"582 (Số Cũ 192), Lê Đức Thọ, P. 15, Q. Gò Vấp","Phone":"(08)39961338","Lat":10.8449340282913,"Long":106.672090863667,"Tag":"Cua Hang Phu Tung Honda Minh Chinh (08)39961338 582 (SO CU 192), LE DUC THO, P. 15, Q. GO VAP"},{"Name":"Tiệm Sửa Xe Honda Hoàng","Address":"4/4, Lê Đức Thọ, P. 13, Q. Gò Vấp","Phone":"(08)38948519","Lat":10.8511930708685,"Long":106.662788962805,"Tag":"Tiem Sua Xe Honda Hoang (08)38948519 4/4, LE DUC THO, P. 13, Q. GO VAP"},{"Name":"Tiệm Sửa Xe Honda Phương Tân","Address":"1275, Tỉnh Lộ 43, P. Bình Chiểu, Q. Thủ Đức","Phone":"0906494717","Lat":10.8921001642704,"Long":106.724034523438,"Tag":"Tiem Sua Xe Honda Phuong Tan 0906494717 1275, TINH LO 43, P. BINH CHIEU, Q. THU DUC"},{"Name":"Tiệm Sửa Xe Honda Hùng","Address":"325B, Kinh Dương Vương, P. An Lạc, Q. Bình Tân","Phone":"","Lat":10.7429743812963,"Long":106.620758747552,"Tag":"Tiem Sua Xe Honda Hung  325B, KINH DUONG VUONG, P. AN LAC, Q. BINH TAN"},{"Name":"Tiệm Sửa Honda Hà","Address":"0, Hà Huy Giáp, P. Thạnh Lộc, Q. 12","Phone":"","Lat":10.8640321275784,"Long":106.680657839259,"Tag":"Tiem Sua Honda Ha  0, HA HUY GIAP, P. THANH LOC, Q. 12"},{"Name":"Cửa Hàng Honda Cúc","Address":"392C, Bãi Sậy, P. 8, Q. 6","Phone":"(08)66787811","Lat":10.746711069846,"Long":106.641508316486,"Tag":"Cua Hang Honda Cuc (08)66787811 392C, BAI SAY, P. 8, Q. 6"},{"Name":"Tiệm Sửa Xe Honda Đông","Address":"0, Đặng Thúc Vịnh, X. Thới Tam Thôn, H. Hóc Môn","Phone":"","Lat":10.893480318602,"Long":106.619160150979,"Tag":"Tiem Sua Xe Honda Dong  0, DANG THUC VINH, X. THOI TAM THON, H. HOC MON"},{"Name":"Cửa Hàng Phụ Tùng Honda Hồng Ánh","Address":"41, Lạc Long Quân, P. 1, Q. 11","Phone":"","Lat":10.7589221821443,"Long":106.640462254971,"Tag":"Cua Hang Phu Tung Honda Hong Anh  41, LAC LONG QUAN, P. 1, Q. 11"},{"Name":"Cửa Hàng Phụ Tùng Honda Thanh Tùng","Address":"340, Lạc Long Quân, P. 5, Q. 11","Phone":"0908668336","Lat":10.7685505353233,"Long":106.643621897189,"Tag":"Cua Hang Phu Tung Honda Thanh Tung 0908668336 340, LAC LONG QUAN, P. 5, Q. 11"},{"Name":"Cửa Hàng Phụ Tùng Honda Tài","Address":"648, Lạc Long Quân, P. 9, Q. Tân Bình","Phone":"","Lat":10.7753645040981,"Long":106.648374771563,"Tag":"Cua Hang Phu Tung Honda Tai  648, LAC LONG QUAN, P. 9, Q. TAN BINH"},{"Name":"Cửa Hàng Phụ Tùng Honda Tuyền","Address":"8/1, Thống Nhất, P. 16, Q. Gò Vấp","Phone":"(08)39961638","Lat":10.847805406683,"Long":106.66473624655,"Tag":"Cua Hang Phu Tung Honda Tuyen (08)39961638 8/1, THONG NHAT, P. 16, Q. GO VAP"},{"Name":"Cửa Hàng Phụ Tùng Honda Đại","Address":"546, Thống Nhất, P. 15, Q. Gò Vấp","Phone":"","Lat":10.851546060107,"Long":106.665267323935,"Tag":"Cua Hang Phu Tung Honda Dai  546, THONG NHAT, P. 15, Q. GO VAP"},{"Name":"Cửa Hàng Phụ Tùng Honda Trường Huy","Address":"525, Thống Nhất, P. 13, Q. Gò Vấp","Phone":"(08)39162499","Lat":10.8525681459985,"Long":106.66547117182,"Tag":"Cua Hang Phu Tung Honda Truong Huy (08)39162499 525, THONG NHAT, P. 13, Q. GO VAP"},{"Name":"Tiệm Sửa Honda Văn An","Address":"60, Xa Lộ Hà Nội, P. Tân Phú, Q. 9","Phone":"0908319538","Lat":10.8643060776369,"Long":106.798782324247,"Tag":"Tiem Sua Honda Van An 0908319538 60, XA LO HA NOI, P. TAN PHU, Q. 9"},{"Name":"Tiệm Sửa Xe Honda Chín","Address":"641, Nguyễn Hữu Thọ, P. Tân Phong, Q. 7","Phone":"","Lat":10.7298139126515,"Long":106.700254058317,"Tag":"Tiem Sua Xe Honda Chin  641, NGUYEN HUU THO, P. TAN PHONG, Q. 7"},{"Name":"Cửa Hàng Xe Máy Honda Ủy Nhiệm - Head Hương Nhứt Thành","Address":"D19/16C, Vĩnh Lộc, X. Vĩnh Lộc B, H. Bình Chánh","Phone":"","Lat":10.8119876003732,"Long":106.576856350406,"Tag":"Cua Hang Xe May Honda Uy Nhiem - Head Huong Nhut Thanh  D19/16C, VINH LOC, X. VINH LOC B, H. BINH CHANH"},{"Name":"Tiệm Sửa Honda Kim Phượng","Address":"5, Bùi Thị He, Tt. Củ Chi, H. Củ Chi","Phone":"(08)38924435","Lat":10.9709851814793,"Long":106.482582067972,"Tag":"Tiem Sua Honda Kim Phuong (08)38924435 5, BUI THI HE, TT. CU CHI, H. CU CHI"},{"Name":"Tiệm Sửa Honda Kim Phượng","Address":"5, Bùi Thị He, Tt. Củ Chi, H. Củ Chi","Phone":"(08)8924435","Lat":10.9709851814793,"Long":106.482582067972,"Tag":"Tiem Sua Honda Kim Phuong (08)8924435 5, BUI THI HE, TT. CU CHI, H. CU CHI"},{"Name":"Tiệm Sửa Honda Tài Lộc","Address":"0, Nguyễn Văn Khạ, Tt. Củ Chi, H. Củ Chi","Phone":"0989215163","Lat":10.9800326773234,"Long":106.493042683128,"Tag":"Tiem Sua Honda Tai Loc 0989215163 0, NGUYEN VAN KHA, TT. CU CHI, H. CU CHI"},{"Name":"Tiệm Sửa Xe Honda Tiến","Address":"223, Nguyễn Văn Khạ, Tt. Củ Chi, H. Củ Chi","Phone":"(08)37906635","Lat":10.9813070985921,"Long":106.493863439086,"Tag":"Tiem Sua Xe Honda Tien (08)37906635 223, NGUYEN VAN KHA, TT. CU CHI, H. CU CHI"},{"Name":"Tiệm Sửa Honda Tài Lộc","Address":"0, Nguyễn Văn Khạ, Tt. Củ Chi, H. Củ Chi","Phone":"0989215163","Lat":10.9800326773234,"Long":106.493042683128,"Tag":"Tiem Sua Honda Tai Loc 0989215163 0, NGUYEN VAN KHA, TT. CU CHI, H. CU CHI"},{"Name":"Tiệm Sửa Xe Honda Cường","Address":"248, Tùng Thiện Vương, P. 11, Q. 8","Phone":"0918256780","Lat":10.747259183882,"Long":106.661989664519,"Tag":"Tiem Sua Xe Honda Cuong 0918256780 248, TUNG THIEN VUONG, P. 11, Q. 8"},{"Name":"Tiệm Sửa Xe Honda Thịnh Phát","Address":"38, Phú Định, P. 16, Q. 8","Phone":"","Lat":10.7255341333884,"Long":106.630468344183,"Tag":"Tiem Sua Xe Honda Thinh Phat  38, PHU DINH, P. 16, Q. 8"},{"Name":"Tiệm Sửa Xe Honda Tâm","Address":"73/1, Phú Định, P. 16, Q. 8","Phone":"(08)39803490","Lat":10.7113081759246,"Long":106.622174953911,"Tag":"Tiem Sua Xe Honda Tam (08)39803490 73/1, PHU DINH, P. 16, Q. 8"},{"Name":"Tiệm Sửa Honda Hòa","Address":"260, Phạm Phú Thứ, P. 4, Q. 6","Phone":"0989169867","Lat":10.7455463242152,"Long":106.643208837001,"Tag":"Tiem Sua Honda Hoa 0989169867 260, PHAM PHU THU, P. 4, Q. 6"},{"Name":"Cửa Hàng Xe Máy Honda Ủy Nhiệm","Address":"100M.N.O.P, Hùng Vương, P. 9, Q. 5","Phone":"","Lat":10.7581422035608,"Long":106.670261597119,"Tag":"Cua Hang Xe May Honda Uy Nhiem  100M.N.O.P, HUNG VUONG, P. 9, Q. 5"},{"Name":"Cửa Hàng Xe Máy Honda Ủy Nhiệm","Address":"B15/07-B15/07A, Quốc Lộ 50, X. Bình Hưng, H. Bình Chánh","Phone":"","Lat":10.729534569301,"Long":106.656045889344,"Tag":"Cua Hang Xe May Honda Uy Nhiem  B15/07-B15/07A, QUOC LO 50, X. BINH HUNG, H. BINH CHANH"},{"Name":"Tiệm Sửa Honda Bơ","Address":"513, Nguyễn Kiệm, P. 9, Q. Phú Nhuận","Phone":"","Lat":10.8034830087996,"Long":106.678909038981,"Tag":"Tiem Sua Honda Bo  513, NGUYEN KIEM, P. 9, Q. PHU NHUAN"},{"Name":"Tiệm Sửa Xe Honda Hiền","Address":"84/518A, Nguyễn Kiệm, P. 3, Q. Gò Vấp","Phone":"","Lat":10.8232318389364,"Long":106.678941225489,"Tag":"Tiem Sua Xe Honda Hien  84/518A, NGUYEN KIEM, P. 3, Q. GO VAP"},{"Name":"Tiệm Sửa Chữa Xe Honda Nghĩa","Address":"84/663, Nguyễn Kiệm, P. 3, Q. Gò Vấp","Phone":"","Lat":10.8230737691519,"Long":106.678925132235,"Tag":"Tiem Sua Chua Xe Honda Nghia  84/663, NGUYEN KIEM, P. 3, Q. GO VAP"},{"Name":"Tiệm Sửa Xe Honda - Xe Đạp","Address":"126, Quốc Lộ 22, X. Tân Thông Hội, H. Củ Chi","Phone":"","Lat":10.950056,"Long":106.520266,"Tag":"Tiem Sua Xe Honda - Xe Dap  126, QUOC LO 22, X. TAN THONG HOI, H. CU CHI"},{"Name":"Cửa Hàng Phụ Tùng Honda - Xe Đạp Vương Đạt","Address":"0, Tỉnh Lộ 9, X. Bình Mỹ, H. Củ Chi","Phone":"","Lat":10.942603,"Long":106.646198,"Tag":"Cua Hang Phu Tung Honda - Xe Dap Vuong Dat  0, TINH LO 9, X. BINH MY, H. CU CHI"},{"Name":"Tiệm Sửa - Rửa Xe Honda","Address":"0, Quốc Lộ 22, Tt. Củ Chi, H. Củ Chi","Phone":"","Lat":10.966087,"Long":106.492312,"Tag":"Tiem Sua - Rua Xe Honda  0, QUOC LO 22, TT. CU CHI, H. CU CHI"},{"Name":"Tiệm Honda Tùng","Address":"0, Quốc Lộ 22, X. Tân Phú Trung, H. Củ Chi","Phone":"","Lat":10.943607,"Long":106.531262,"Tag":"Tiem Honda Tung  0, QUOC LO 22, X. TAN PHU TRUNG, H. CU CHI"},{"Name":"Tiệm Sửa Xe Honda Huỳnh","Address":"0, Hương Lộ 2, X. Trung Lập Hạ, H. Củ Chi","Phone":"","Lat":10.999065,"Long":106.483862,"Tag":"Tiem Sua Xe Honda Huynh  0, HUONG LO 2, X. TRUNG LAP HA, H. CU CHI"},{"Name":"Tiệm Sửa Xe Honda Đọt","Address":"0, Tỉnh Lộ 8, X. Tân An Hội, H. Củ Chi","Phone":"","Lat":10.965092,"Long":106.484901,"Tag":"Tiem Sua Xe Honda Dot  0, TINH LO 8, X. TAN AN HOI, H. CU CHI"},{"Name":"Tiệm Sửa Honda Út Tuấn","Address":"93, Liêu Bình Hương, X. Tân Thông Hội, H. Củ Chi","Phone":"01675599299","Lat":10.9639070870927,"Long":106.503846621037,"Tag":"Tiem Sua Honda Ut Tuan 01675599299 93, LIEU BINH HUONG, X. TAN THONG HOI, H. CU CHI"},{"Name":"Cửa Hàng Phụ Tùng Honda Tài Lộc","Address":"1873A, Tỉnh Lộ 8, X. Bình Mỹ, H. Củ Chi","Phone":"(08)37375064","Lat":10.9733076442711,"Long":106.638134097546,"Tag":"Cua Hang Phu Tung Honda Tai Loc (08)37375064 1873A, TINH LO 8, X. BINH MY, H. CU CHI"},{"Name":"Cửa Hàng Phụ Tùng Honda Hoàng Phương","Address":"42, Trung An, X. Trung An, H. Củ Chi","Phone":"(08)38861568","Lat":10.9865521794556,"Long":106.593995666007,"Tag":"Cua Hang Phu Tung Honda Hoang Phuong (08)38861568 42, TRUNG AN, X. TRUNG AN, H. CU CHI"},{"Name":"Tiệm Sửa Honda Hào","Address":"72, Hà Duy Phiên, X. Bình Mỹ, H. Củ Chi","Phone":"0988224549","Lat":10.9293252134094,"Long":106.646878098933,"Tag":"Tiem Sua Honda Hao 0988224549 72, HA DUY PHIEN, X. BINH MY, H. CU CHI"},{"Name":"Tiệm Sửa Honda Phương","Address":"82, Đường Số 8, P. Tăng Nhơn Phú A, Q. 9","Phone":"(08)37313913","Lat":10.8158762366598,"Long":106.772555684506,"Tag":"Tiem Sua Honda Phuong (08)37313913 82, DUONG SO 8, P. TANG NHON PHU A, Q. 9"},{"Name":"Tiệm Sửa Honda Thiên Trang","Address":"88D, Đường Số 339, P. Phước Long B, Q. 9","Phone":"0902991473","Lat":10.8237113167726,"Long":106.775844072757,"Tag":"Tiem Sua Honda Thien Trang 0902991473 88D, DUONG SO 339, P. PHUOC LONG B, Q. 9"},{"Name":"Tiệm Sửa Xe Honda Tấn Phong","Address":"54A, Lò Lu, P. Trường Thạnh, Q. 9","Phone":"(08)37300994","Lat":10.8258979367384,"Long":106.815986012865,"Tag":"Tiem Sua Xe Honda Tan Phong (08)37300994 54A, LO LU, P. TRUONG THANH, Q. 9"},{"Name":"Tiệm Sửa Honda Mạnh Tần","Address":"1153, Nguyễn Xiển, P. Long Bình, Q. 9","Phone":"0903335591","Lat":10.8687155853315,"Long":106.838763331814,"Tag":"Tiem Sua Honda Manh Tan 0903335591 1153, NGUYEN XIEN, P. LONG BINH, Q. 9"},{"Name":"Tiệm Sửa Honda Vương","Address":"150, Lê Thị Hoa, P. Bình Chiểu, Q. Thủ Đức","Phone":"","Lat":10.8795151795632,"Long":106.744639253085,"Tag":"Tiem Sua Honda Vuong  150, LE THI HOA, P. BINH CHIEU, Q. THU DUC"},{"Name":"Tiệm Sửa Honda Anh Tú","Address":"1, Đường Số 9, P. Hiệp Bình Phước, Q. Thủ Đức","Phone":"0908331170","Lat":10.8485535411121,"Long":106.717602586221,"Tag":"Tiem Sua Honda Anh Tu 0908331170 1, DUONG SO 9, P. HIEP BINH PHUOC, Q. THU DUC"},{"Name":"Tiệm Sửa Honda Hùng","Address":"186, Tam Bình, P. Tam Phú, Q. Thủ Đức","Phone":"0903647893","Lat":10.8554499879109,"Long":106.736211752362,"Tag":"Tiem Sua Honda Hung 0903647893 186, TAM BINH, P. TAM PHU, Q. THU DUC"},{"Name":"Tiệm Sửa Honda 19/3B Hùng Sơn","Address":"19/3B, Lê Lợi, Tt. Hóc Môn, H. Hóc Môn","Phone":"(08)37102682","Lat":10.888923677898,"Long":106.594623302917,"Tag":"Tiem Sua Honda 19/3B Hung Son (08)37102682 19/3B, LE LOI, TT. HOC MON, H. HOC MON"},{"Name":"Tiệm Sửa Honda Ba Đức","Address":"68, Hoài Thanh, P. 14, Q. 8","Phone":"0935491412","Lat":10.7384839694344,"Long":106.649318909136,"Tag":"Tiem Sua Honda Ba Duc 0935491412 68, HOAI THANH, P. 14, Q. 8"},{"Name":"Phụ Tùng Honda Hoàn Hảo","Address":"84, Tân Khai, P. 4, Q. 11","Phone":"","Lat":10.7582686867114,"Long":106.656153177704,"Tag":"Phu Tung Honda Hoan Hao  84, TAN KHAI, P. 4, Q. 11"},{"Name":"Phụ Tùng Xe Honda Tiến","Address":"87, Tân Thành, P. 12, Q. 5","Phone":"(08)39558177","Lat":10.7560499537482,"Long":106.656201457466,"Tag":"Phu Tung Xe Honda Tien (08)39558177 87, TAN THANH, P. 12, Q. 5"},{"Name":"Phụ Tùng Xe Honda Lan","Address":"87A, Tân Thành, P. 12, Q. 5","Phone":"(08)39555451","Lat":10.7560604940859,"Long":106.656179999794,"Tag":"Phu Tung Xe Honda Lan (08)39555451 87A, TAN THANH, P. 12, Q. 5"},{"Name":"Phụ Tùng Honda Trực","Address":"102, Tân Thành, P. 15, Q. 5","Phone":"(08)39561673","Lat":10.7559603608628,"Long":106.655536269631,"Tag":"Phu Tung Honda Truc (08)39561673 102, TAN THANH, P. 15, Q. 5"},{"Name":"Phụ Tùng Honda Tân Thành","Address":"95, Tân Thành, P. 15, Q. 5","Phone":"(08)39557323","Lat":10.7559392801801,"Long":106.655396794762,"Tag":"Phu Tung Honda Tan Thanh (08)39557323 95, TAN THANH, P. 15, Q. 5"},{"Name":"Phụ Tùng Honda Hưng Lợi","Address":"97, Tân Thành, P. 15, Q. 5","Phone":"(08)39562148","Lat":10.7559181994958,"Long":106.655300235238,"Tag":"Phu Tung Honda Hung Loi (08)39562148 97, TAN THANH, P. 15, Q. 5"},{"Name":"Cửa Hàng Xe Máy Honda Ủy Nhiệm - Head Sông Hồng","Address":"268B, Nam Kỳ Khởi Nghĩa, P. 8, Q. 3","Phone":"(08)39326477","Lat":10.7880539899741,"Long":106.685925697763,"Tag":"Cua Hang Xe May Honda Uy Nhiem - Head Song Hong (08)39326477 268B, NAM KY KHOI NGHIA, P. 8, Q. 3"},{"Name":"Cửa Hàng Xe Máy Honda Ủy Nhiệm - Head Hoàng Việt","Address":"2, Lãnh Binh Thăng, P. 13, Q. 11","Phone":"(08)39621091","Lat":10.7620631565569,"Long":106.656652068581,"Tag":"Cua Hang Xe May Honda Uy Nhiem - Head Hoang Viet (08)39621091 2, LANH BINH THANG, P. 13, Q. 11"},{"Name":"Showroom Xe Hơi Honda","Address":"0, Nguyễn Thị Định, P. Bình Trưng Tây, Q. 2","Phone":"","Lat":10.7849817922915,"Long":106.757245635452,"Tag":"Showroom Xe Hoi Honda  0, NGUYEN THI DINH, P. BINH TRUNG TAY, Q. 2"},{"Name":"Cửa Hàng Honda Trực","Address":"269, Bùi Đình Túy, P. 24, Q. Bình Thạnh","Phone":"","Lat":10.807571987491,"Long":106.699873184637,"Tag":"Cua Hang Honda Truc  269, BUI DINH TUY, P. 24, Q. BINH THANH"},{"Name":"Cửa Hàng Honda Hoàng","Address":"224/5A, Quốc Lộ 13, P. 26, Q. Bình Thạnh","Phone":"","Lat":10.8108494533877,"Long":106.712399100734,"Tag":"Cua Hang Honda Hoang  224/5A, QUOC LO 13, P. 26, Q. BINH THANH"},{"Name":"Công Ty TNHH TM - DV Phát Tiến","Address":"257-259, Hoàng Diệu, P. 5, Q. 4","Phone":"(08)39414931","Lat":10.759486084323,"Long":106.698322867827,"Tag":"Cong Ty TNHH TM - DV Phat Tien (08)39414931 257-259, HOANG DIEU, P. 5, Q. 4"},{"Name":"Cửa Hàng Phụ Tùng Honda - Xe Đạp","Address":"56A, Tân Hóa, P. 1, Q. 11","Phone":"","Lat":10.757077634941,"Long":106.635886406392,"Tag":"Cua Hang Phu Tung Honda - Xe Dap  56A, TAN HOA, P. 1, Q. 11"},{"Name":"Cửa Hàng Phụ Tùng Honda Oanh","Address":"48, Phan Anh, P. 14, Q. 6","Phone":"(08)22430601","Lat":10.7610618427639,"Long":106.624342178795,"Tag":"Cua Hang Phu Tung Honda Oanh (08)22430601 48, PHAN ANH, P. 14, Q. 6"},{"Name":"Công Ty TNHH TM DV Sơn Minh - Cửa Hàng Xe Honda","Address":"594-596-598, Hậu Giang, P. 12, Q. 6","Phone":"(08)38172519","Lat":10.748112974917,"Long":106.635081743688,"Tag":"Cong Ty TNHH TM DV Son Minh - Cua Hang Xe Honda (08)38172519 594-596-598, HAU GIANG, P. 12, Q. 6"},{"Name":"Công Ty CP Đầu Tư TM Long Bảo - Head Honda","Address":"0, Lê Quang Định, P. 1, Q. Gò Vấp","Phone":"","Lat":10.8206763672002,"Long":106.689299916703,"Tag":"Cong Ty CP Dau Tu TM Long Bao - Head Honda  0, LE QUANG DINH, P. 1, Q. GO VAP"},{"Name":"Cửa Hàng Phụ Tùng Honda Hưng Vượng Mới","Address":"222, Nguyễn Thị Nhỏ, P. 4, Q. 11","Phone":"(08)35073881","Lat":10.7570565543363,"Long":106.651115989175,"Tag":"Cua Hang Phu Tung Honda Hung Vuong Moi (08)35073881 222, NGUYEN THI NHO, P. 4, Q. 11"},{"Name":"Công Ty TNHH Việt Thái Quân - Đại Lý Xe Honda","Address":"0, Quang Trung, P. 3, Q. Gò Vấp","Phone":"","Lat":10.8262351489997,"Long":106.679692244013,"Tag":"Cong Ty TNHH Viet Thai Quan - Dai Ly Xe Honda  0, QUANG TRUNG, P. 3, Q. GO VAP"},{"Name":"Đại Lý Dầu Nhớt Honda Hậu","Address":"12, Lê Đức Thọ, P. 17, Q. Gò Vấp","Phone":"0908465490","Lat":10.8396390288816,"Long":106.679225539645,"Tag":"Dai Ly Dau Nhot Honda Hau 0908465490 12, LE DUC THO, P. 17, Q. GO VAP"},{"Name":"Công Ty TNHH Chí Dũng - Đại Lý Honda","Address":"0, Quang Trung, P. 14, Q. Gò Vấp","Phone":"","Lat":10.8445494195506,"Long":106.639818524807,"Tag":"Cong Ty TNHH Chi Dung - Dai Ly Honda  0, QUANG TRUNG, P. 14, Q. GO VAP"},{"Name":"Trạm Bảo Trì Sửa Chữa Xe Máy - Honda Dân Dân","Address":"410, Thống Nhất, P. 16, Q. Gò Vấp","Phone":"(08)38947538","Lat":10.8488854593086,"Long":106.664795255148,"Tag":"Tram Bao Tri Sua Chua Xe May - Honda Dan Dan (08)38947538 410, THONG NHAT, P. 16, Q. GO VAP"},{"Name":"Cửa Hàng Phụ Tùng Honda Sơn","Address":"236, Tô Ngọc Vân, P. Linh Đông, Q. Thủ Đức","Phone":"(08)38963365","Lat":10.857504666268,"Long":106.749467229311,"Tag":"Cua Hang Phu Tung Honda Son (08)38963365 236, TO NGOC VAN, P. LINH DONG, Q. THU DUC"},{"Name":"Cửa Hàng Phụ Tùng Honda Đức Hậu","Address":"77, Trường Chinh, P. Tân Thới Nhất, Q. 12","Phone":"","Lat":10.8279844315138,"Long":106.624503111336,"Tag":"Cua Hang Phu Tung Honda Duc Hau  77, TRUONG CHINH, P. TAN THOI NHAT, Q. 12"},{"Name":"Cửa Hàng Honda Tiến Dũng","Address":"225, Trường Chinh, P. Tân Thới Nhất, Q. 12","Phone":"(08)38833220","Lat":10.8339013565849,"Long":106.620678281281,"Tag":"Cua Hang Honda Tien Dung (08)38833220 225, TRUONG CHINH, P. TAN THOI NHAT, Q. 12"},{"Name":"Công Ty TNHH TM DV Visacoop - Cửa Hàng Honda","Address":"839, Tân Kỳ Tân Quý, P. Bình Hưng Hòa A, Q. Bình Tân","Phone":"(08)62615555","Lat":10.7907520176267,"Long":106.603758906819,"Tag":"Cong Ty TNHH TM DV Visacoop - Cua Hang Honda (08)62615555 839, TAN KY TAN QUY, P. BINH HUNG HOA A, Q. BINH TAN"},{"Name":"Cửa Hàng Xe Máy Honda - Đại Lý Đông Nam","Address":"36F-38, Phan Đăng Lưu, P. 5, Q. Bình Thạnh","Phone":"","Lat":10.8038202462628,"Long":106.687272166688,"Tag":"Cua Hang Xe May Honda - Dai Ly Dong Nam  36F-38, PHAN DANG LUU, P. 5, Q. BINH THANH"},{"Name":"Công Ty TNHH TM DV Phát Tiến - Cửa Hàng Honda","Address":"736, Cách Mạng Tháng 8, P. 5, Q. Tân Bình","Phone":"(08)39907920","Lat":10.7878273967059,"Long":106.662928437674,"Tag":"Cong Ty TNHH TM DV Phat Tien - Cua Hang Honda (08)39907920 736, CACH MANG THANG 8, P. 5, Q. TAN BINH"},{"Name":"Đại Lý Honda Phát Tiến","Address":"406A, Lê Trọng Tấn, P. Tây Thạnh, Q. Tân Phú","Phone":"","Lat":10.808404530451,"Long":106.618575429414,"Tag":"Dai Ly Honda Phat Tien  406A, LE TRONG TAN, P. TAY THANH, Q. TAN PHU"},{"Name":"Đại Lý Xe Máy - Honda Phát Tiến","Address":"391, Lê Trọng Tấn, P. Sơn Kỳ, Q. Tân Phú","Phone":"(08)38160519","Lat":10.8083149531548,"Long":106.617813682054,"Tag":"Dai Ly Xe May - Honda Phat Tien (08)38160519 391, LE TRONG TAN, P. SON KY, Q. TAN PHU"},{"Name":"Cửa Hàng Phụ Tùng Honda 215","Address":"215, Lạc Long Quân, P. 3, Q. 11","Phone":"","Lat":10.7639182133211,"Long":106.642168139904,"Tag":"Cua Hang Phu Tung Honda 215  215, LAC LONG QUAN, P. 3, Q. 11"},{"Name":"Tiệm Sửa Honda 2","Address":"708, Bình Long, P. Sơn Kỳ, Q. Tân Phú","Phone":"","Lat":10.7979712303345,"Long":106.613017892336,"Tag":"Tiem Sua Honda 2  708, BINH LONG, P. SON KY, Q. TAN PHU"},{"Name":"Trung Tâm Honda","Address":"11E, Trần Phú, P. 4, Q. 5","Phone":"","Lat":10.7636810618144,"Long":106.680062388857,"Tag":"Trung Tam Honda  11E, TRAN PHU, P. 4, Q. 5"},{"Name":"Cửa Hàng Phụ Tùng Honda Toàn Phát","Address":"516, Tỉnh Lộ 10, P. Bình Trị Đông, Q. Bình Tân","Phone":"(08)22138608","Lat":10.7574570855732,"Long":106.61815164039,"Tag":"Cua Hang Phu Tung Honda Toan Phat (08)22138608 516, TINH LO 10, P. BINH TRI DONG, Q. BINH TAN"},{"Name":"Cửa Hàng Xe Máy Honda","Address":"150, Nguyễn Sơn, P. Phú Thọ Hòa, Q. Tân Phú","Phone":"","Lat":10.7821045426783,"Long":106.629078959914,"Tag":"Cua Hang Xe May Honda  150, NGUYEN SON, P. PHU THO HOA, Q. TAN PHU"},{"Name":"Tân Long Vân - Cửa Hàng Xe Máy Honda","Address":"0, Nguyễn Sơn, P. Phú Thạnh, Q. Tân Phú","Phone":"","Lat":10.7824470738372,"Long":106.627984618636,"Tag":"Tan Long Van - Cua Hang Xe May Honda  0, NGUYEN SON, P. PHU THANH, Q. TAN PHU"},{"Name":"Cửa Hàng Phụ Tùng Honda Quang Tuấn","Address":"0, An Phú Tây, X. An Phú Tây, H. Bình Chánh","Phone":"0909347033","Lat":10.6864915316698,"Long":106.59594831417,"Tag":"Cua Hang Phu Tung Honda Quang Tuan 0909347033 0, AN PHU TAY, X. AN PHU TAY, H. BINH CHANH"},{"Name":"Cửa Hàng Phụ Tùng Honda Phương Phát","Address":"0, An Phú Tây, X. An Phú Tây, H. Bình Chánh","Phone":"(08)37603755","Lat":10.6823376554431,"Long":106.608345484234,"Tag":"Cua Hang Phu Tung Honda Phuong Phat (08)37603755 0, AN PHU TAY, X. AN PHU TAY, H. BINH CHANH"},{"Name":"Showroom Honda Phước Thành","Address":"0, Võ Văn Kiệt, P. An Lạc, Q. Bình Tân","Phone":"","Lat":10.7210276501207,"Long":106.609573935962,"Tag":"Showroom Honda Phuoc Thanh  0, VO VAN KIET, P. AN LAC, Q. BINH TAN"},{"Name":"Đại Lý Honda Hoàng Việt 2","Address":"635, Phạm Thế Hiển, P. 4, Q. 8","Phone":"(08)38521109","Lat":10.7456780829962,"Long":106.676961755237,"Tag":"Dai Ly Honda Hoang Viet 2 (08)38521109 635, PHAM THE HIEN, P. 4, Q. 8"},{"Name":"Cửa Hàng Xe Máy - Honda Minh Thành","Address":"412A, Lũy Bán Bích, P. Hòa Thạnh, Q. Tân Phú","Phone":"","Lat":10.777245827941,"Long":106.634556030721,"Tag":"Cua Hang Xe May - Honda Minh Thanh  412A, LUY BAN BICH, P. HOA THANH, Q. TAN PHU"},{"Name":"Công Ty TNHH Quang Hùng Phương - Trạm Bảo Hành Yamaha - Honda","Address":"43, Nguyễn Thị Nhỏ, P. 9, Q. Tân Bình","Phone":"","Lat":10.769831130546,"Long":106.65265557715,"Tag":"Cong Ty TNHH Quang Hung Phuong - Tram Bao Hanh Yamaha - Honda  43, NGUYEN THI NHO, P. 9, Q. TAN BINH"},{"Name":"Cửa Hàng Honda 88","Address":"88, Đặng Văn Bi, P. Bình Thọ, Q. Thủ Đức","Phone":"(08)37220424","Lat":10.8429056067563,"Long":106.762990927161,"Tag":"Cua Hang Honda 88 (08)37220424 88, DANG VAN BI, P. BINH THO, Q. THU DUC"},{"Name":"Cửa Hàng Phụ Tùng Xe Honda 437","Address":"437, Phạm Thế Hiển, P. 3, Q. 8","Phone":"(08)38516246","Lat":10.7475121592552,"Long":106.680459355792,"Tag":"Honda Spare Parts Store 437 (08)38516246 437, Pham The Hien, P. 3, Q. 8"},{"Name":"Tiệm Sửa Xe Honda Đôn","Address":"1171, Phạm Thế Hiển, P. 5, Q. 8","Phone":"(08)39810835","Lat":10.7417147537197,"Long":106.660578822578,"Tag":"Tiem Sua Xe Honda Don (08)39810835 1171, PHAM THE HIEN, P. 5, Q. 8"},{"Name":"Tiệm Sửa Honda Dũng Miêu","Address":"853, Phạm Thế Hiển, P. 4, Q. 8","Phone":"(08)38569774","Lat":10.7439125105547,"Long":106.672943806134,"Tag":"Tiem Sua Honda Dung Mieu (08)38569774 853, Pham The Hien, P. 4, Q. 8"},{"Name":"Cửa Hàng Phụ Tùng Honda Duy Quân","Address":"48, Nguyễn Thái Sơn, P. 3, Q. Gò Vấp","Phone":"(08)38955608","Lat":10.8154020154215,"Long":106.679660057505,"Tag":"Duy Quan Honda Spare Parts Store (08)38955608 48, Nguyen Thai Son, P. 3, Q. go Vap"},{"Name":"Cửa Hàng Phụ Tùng Xe Honda Hồng Phong","Address":"212, Bùi Hữu Nghĩa, P. 2, Q. Bình Thạnh","Phone":"(08)38430473","Lat":10.7976761418281,"Long":106.698859309629,"Tag":"Hong Phong Honda Spare Parts Store (08)38430473 212, BUI HUU NGHIA, P. 2, Q. BINH THANH"},{"Name":"Tiệm Sửa Honda Lập Thành","Address":"147, Bà Hom, P. 13, Q. 6","Phone":"(08)38764060","Lat":10.755080241104,"Long":106.628918027373,"Tag":"Tiem Sua Honda Lap Thanh (08)38764060 147, BA HOM, P. 13, Q. 6"},{"Name":"Cửa Hàng Phụ Tùng Honda Minh Đạo","Address":"88, Âu Dương Lân, P. 3, Q. 8","Phone":"(08)38515933","Lat":10.7467901248164,"Long":106.682519292315,"Tag":"Minh Dao Honda Spare Parts Store (08)38515933 88, AU DUONG LAN, P. 3, Q. 8"},{"Name":"Cửa Hàng Phụ Tùng Honda Minh Phụng","Address":"227, Nguyễn Thị Nhỏ, P. 16, Q. 11","Phone":"(08)39602365","Lat":10.7564715669688,"Long":106.651083802667,"Tag":"Minh Phung Honda Spare Parts Store (08)39602365 227, NGUYEN THI NHO, P. 16, Q. 11"},{"Name":"Cửa Hàng Phụ Tùng Honda Nghĩa Thiện","Address":"42, Phạm Văn Hai, P. 2, Q. Tân Bình","Phone":"(08)39905335","Lat":10.7965959046446,"Long":106.664505576575,"Tag":"Nghia Thien Honda Spare Parts Store (08)39905335 42, PHAM VAN HAI, P. 2, Q. TAN BINH"},{"Name":"Cửa Hàng Phụ Tùng Honda Nhơn Phong","Address":"89-91, Nguyễn Văn Nghi, P. 4, Q. Gò Vấp","Phone":"(08)39856058","Lat":10.824438435544,"Long":106.68623146959,"Tag":"Nhon Phong Honda Spare Parts Store (08)39856058 89-91, NGUYEN VAN NGHI, P. 4, Q. GO VAP"},{"Name":"Cửa Hàng Phụ Tùng Honda Phát Thành","Address":"106, Phạm Đình Hổ, P. 2, Q. 6","Phone":"(08)39600173","Lat":10.7526454053987,"Long":106.649678325144,"Tag":"Phat Thanh Honda Spare Parts Store (08)39600173 106, PHAM DINH HO, P. 2, Q. 6"},{"Name":"Công Ty TNHH TMDV Phát Tiến - Cửa Hàng Chuyên Doanh Xe Honda","Address":"16, Lữ Gia, P. 15, Q. 11","Phone":"(08)38663391","Lat":10.7706216187067,"Long":106.65679154345,"Tag":"Cong Ty TNHH TMDV Phat Tien - Cua Hang Chuyen Doanh Xe Honda (08)38663391, (08)38661953 16, LU GIA, P. 15, Q. 11"},{"Name":"Cửa Hàng Phụ Tùng Honda Phi Long","Address":"85-87, Dạ Nam, P. 2, Q. 8","Phone":"(08)38500690","Lat":10.7488929794305,"Long":106.685233687837,"Tag":"Phi Long Honda Spare Parts Store (08)38500690 85-87, DA NAM, P. 2, Q. 8"},{"Name":"Cửa Hàng Phụ Tùng Honda Quân","Address":"156, Bùi Hữu Nghĩa, P. 2, Q. Bình Thạnh","Phone":"(08)38030184","Lat":10.7960320719867,"Long":106.698349689917,"Tag":"Quan Honda Spare Parts Store (08)38030184 156, Bui Huu Nghia, P. 2, Q. binh Thanh"},{"Name":"Cửa Hàng Phụ Tùng Xe Honda Thành","Address":"143, Bình Tiên, P. 8, Q. 6","Phone":"(08)38540287","Lat":10.7431166819893,"Long":106.643246387927,"Tag":"Thanh Honda Spare Parts Store (08)38540287 143, BINH TIEN, P. 8, Q. 6"},{"Name":"Cửa Hàng Xe Máy Honda Ủy Nhiệm - Head","Address":"245, Xô Viết Nghệ Tĩnh, P. 17, Q. Bình Thạnh","Phone":"(08)35106666","Lat":10.8006586301765,"Long":106.711133098079,"Tag":"Cua Hang Xe May Honda Uy Nhiem - Head (08)35106666 245, XO VIET NGHE TINH, P. 17, Q. BINH THANH"},{"Name":"Cửa Hàng Phụ Tùng Honda Thiên Phát","Address":"119, Phan Đăng Lưu, P. 7, Q. Phú Nhuận","Phone":"(08)38450131","Lat":10.8034830087996,"Long":106.684831356485,"Tag":"Thien Phat Honda Spare Parts Store (08)38450131 119, PHAN DANG LUU, P. 7, Q. PHU NHUAN"},{"Name":"Cửa Hàng Phụ Tùng Xe Honda Trí Nhã","Address":"284, Tùng Thiện Vương, P. 13, Q. 8","Phone":"(08)39501663","Lat":10.7461734954979,"Long":106.659623956169,"Tag":"Tri Nha Honda Spare Parts Store (08)39501663 284, TUNG THIEN VUONG, P. 13, Q. 8"},{"Name":"Cửa Hàng Xe Máy Honda Ủy Nhiệm - Head ITC 1","Address":"439, Trường Chinh, P. 14, Q. Tân Bình","Phone":"(08)38105637","Lat":10.8000631887556,"Long":106.639780973881,"Tag":"Cua Hang Xe May Honda Uy Nhiem - Head ITC 1 (08)38105637 439, TRUONG CHINH, P. 14, Q. TAN BINH"},{"Name":"Cửa Hàng Honda Trung Thành","Address":"10, Xô Viết Nghệ Tĩnh, P. 19, Q. Bình Thạnh","Phone":"(08)38406096","Lat":10.7928756434558,"Long":106.707571124508,"Tag":"Trung Thanh Honda Store (08)38406096 10, XO VIET NGHE TINH, P. 19, Q. BINH THANH"},{"Name":"Cửa Hàng Honda Cường","Address":"139, Ngô Tất Tố, P. 22, Q. Bình Thạnh","Phone":"(08)38401588","Lat":10.7916425722204,"Long":106.714083527995,"Tag":"Honda Cuong Store (08)38401588 139, NGO TAT TO, P. 22, Q. BINH THANH"},{"Name":"Cửa Hàng Xe Máy Honda Ủy Nhiệm - Head Dương Vũ","Address":"6/7, Quang Trung, P. 10, Q. Gò Vấp","Phone":"(08)39870643","Lat":10.8339224317992,"Long":106.665347790205,"Tag":"Cua Hang Xe May Honda Uy Nhiem - Head Duong Vu (08)39870643 6/7, QUANG TRUNG, P. 10, Q. GO VAP"},{"Name":"Cửa Hàng Xe Máy Honda Ủy Nhiệm - Head Hà Thành","Address":"125, Nguyễn Xí, P. 26, Q. Bình Thạnh","Phone":"(08)35118637","Lat":10.8134524313424,"Long":106.709330653621,"Tag":"Cua Hang Xe May Honda Uy Nhiem - Head Ha Thanh (08)35118637 125, NGUYEN XI, P. 26, Q. BINH THANH"},{"Name":"Cửa Hàng Xe Máy Honda Ủy Nhiệm - Head ITC 2","Address":"683, Âu Cơ, P. Tân Thành, Q. Tân Phú","Phone":"(08)38425523","Lat":10.7887179599627,"Long":106.640660738438,"Tag":"Cua Hang Xe May Honda Uy Nhiem - Head ITC 2 (08)38425523, (08)38108745 683, AU CO, P. TAN THANH, Q. TAN PHU"},{"Name":"Cửa Hàng Xe Máy Honda Ủy Nhiệm - Head Phát Tiến 4","Address":"257-259, Khánh Hội, P. 5, Q. 4","Phone":"(08)39414393","Lat":10.7594913544319,"Long":106.698548173384,"Tag":"Cua Hang Xe May Honda Uy Nhiem - Head Phat Tien 4 (08)39414393, (08)39414931 257-259, KHANH HOI, P. 5, Q. 4"},{"Name":"Cửa Hàng Xe Máy Honda Ủy Nhiệm - Head Nhứt Thành 1","Address":"881, Kinh Dương Vương, P. An Lạc, Q. Bình Tân","Phone":"","Lat":10.7233625966142,"Long":106.601516580083,"Tag":"Cua Hang Xe May Honda Uy Nhiem - Head Nhut Thanh 1  881, KINH DUONG VUONG, P. AN LAC, Q. BINH TAN"},{"Name":"Cửa Hàng Xe Máy Honda Ủy Nhiệm - Head Hodaco1","Address":"342-344-346, 3 Tháng 2, P. 12, Q. 10","Phone":"(08)38653326","Lat":10.769530744501,"Long":106.670653199635,"Tag":"Cua Hang Xe May Honda Uy Nhiem - Head Hodaco1 (08)38653326, (08)38652694 342-344-346, 3 THANG 2, P. 12, Q. 10"},{"Name":"Cửa Hàng Xe Máy Honda Ủy Nhiệm - Head Bến Thành Motor","Address":"48-50-52, Trần Hưng Đạo, P. Phạm Ngũ Lão, Q. 1","Phone":"(08)38368119","Lat":10.7666849671093,"Long":106.694058155494,"Tag":"Cua Hang Xe May Honda Uy Nhiem - Head Ben Thanh Motor (08)38368119, (08)38364084 48-50-52, TRAN HUNG DAO, P. PHAM NGU LAO, Q. 1"},{"Name":"Cửa Hàng Xe Máy Honda Ủy Nhiệm - Head Tường Nguyên 3","Address":"212B, Nguyễn Trãi, P. Nguyễn Cư Trinh, Q. 1","Phone":"(08)38364073","Lat":10.765125048097,"Long":106.687626218278,"Tag":"Cua Hang Xe May Honda Uy Nhiem - Head Tuong Nguyen 3 (08)38364073 212B, NGUYEN TRAI, P. NGUYEN CU TRINH, Q. 1"},{"Name":"Cửa Hàng Xe Máy Honda Ủy Nhiệm - Head Tifoco Tiến Phong","Address":"255, Lý Thường Kiệt, P. 15, Q. 11","Phone":"(08)38645520","Lat":10.7727717360073,"Long":106.657451366867,"Tag":"Cua Hang Xe May Honda Uy Nhiem - Head Tifoco Tien Phong (08)38645520 255, LY THUONG KIET, P. 15, Q. 11"},{"Name":"Phụ Tùng Xe Máy Sấm","Address":"98B, Dương Tử Giang, P. 15, Q. 5","Phone":"(08)39550820","Lat":10.754732408635,"Long":106.654962276902,"Tag":"Phu Tung Xe May Sam (08)39550820 98B, DUONG TU GIANG, P. 15, Q. 5"},{"Name":"Tiệm Honda Hùng Hằng","Address":"125B, Dương Tử Giang, P. 15, Q. 5","Phone":"(08)39556220","Lat":10.7558233363985,"Long":106.654731606927,"Tag":"Tiem Honda Hung Hang (08)39556220, (08)35108031 125B, DUONG TU GIANG, P. 15, Q. 5"},{"Name":"Cửa Hàng Xe Máy Honda Ủy Nhiệm - Công Ty TNHH TMDV Hào Quang","Address":"125, Phan Đăng Lưu, P. 7, Q. Phú Nhuận","Phone":"(08)38458882","Lat":10.8035409715155,"Long":106.684944009263,"Tag":"Cua Hang Xe May Honda Uy Nhiem - Cong Ty TNHH TMDV Hao Quang (08)38458882 125, PHAN DANG LUU, P. 7, Q. PHU NHUAN"},{"Name":"Cửa Hàng Xe Máy Honda Ủy Nhiệm - Head Phú Thành 1","Address":"577, Nguyễn Kiệm, P. 9, Q. Phú Nhuận","Phone":"(08)38440112","Lat":10.8096691482501,"Long":106.678399419269,"Tag":"Cua Hang Xe May Honda Uy Nhiem - Head Phu Thanh 1 (08)38440112 577, NGUYEN KIEM, P. 9, Q. PHU NHUAN"},{"Name":"Cửa Hàng Xe Máy Honda Ủy Nhiệm - Head OSC - Công Ty TNHH MTV DV Dầu Khí Việt Nam","Address":"182-184, Hoàng Văn Thụ, P. 9, Q. Phú Nhuận","Phone":"(08)38440846","Lat":10.7995099014216,"Long":106.675234412632,"Tag":"Cua Hang Xe May Honda Uy Nhiem - Head OSC - Cong Ty TNHH MTV DV Dau Khi Viet Nam (08)38440846 182-184, HOANG VAN THU, P. 9, Q. PHU NHUAN"},{"Name":"Showroom Honda Ô Tô Cộng Hòa - Công Ty CP XNK DV Ô Tô Mặt Trời Mọc TP. Hà Nội - CN","Address":"18, Cộng Hòa, P. 4, Q. Tân Bình","Phone":"(08)38116868","Lat":10.8012698785488,"Long":106.655777668442,"Tag":"Showroom Honda O To Cong Hoa - Cong Ty CP XNK DV O To Mat Troi Moc TP. Ha Noi - CN (08)38116868 18, CONG HOA, P. 4, Q. TAN BINH"},{"Name":"Cửa Hàng Xe Máy Yamaha - Trạm Bảo Hành Yamaha","Address":"132F, Nguyễn Tri Phương, P. 9, Q. 5","Phone":"(08)38549882","Lat":10.7573885736888,"Long":106.669467663251,"Tag":"Cua Hang Xe May Yamaha - Tram Bao Hanh Yamaha (08)38549882 132F, NGUYEN TRI PHUONG, P. 9, Q. 5"},{"Name":"Trung Tâm Bảo Hành Yamaha","Address":"339/10, Phan Văn Hớn, P. Tân Thới Nhất, Q. 12","Phone":"(08)22144499","Lat":10.8332216801294,"Long":106.608715629078,"Tag":"Trung Tam Bao Hanh Yamaha (08)22144499 339/10, PHAN VAN HON, P. TAN THOI NHAT, Q. 12"},{"Name":"Công Ty TNHH TMDV Hoàng Nhung - Đại Lý Yamaha","Address":"101-105, Tên Lửa, P. Bình Trị Đông B, Q. Bình Tân","Phone":"(08)37526358","Lat":10.7460891700231,"Long":106.612508272624,"Tag":"Cong Ty TNHH TMDV Hoang Nhung - Dai Ly Yamaha Cong Ty TNHH TMDV Hoang Nhung (08)37526358 101-105, TEN LUA, P. BINH TRI DONG B, Q. BINH TAN"},{"Name":"Trạm Bảo Hành Yamaha Trần Hải","Address":"84/3, Hà Huy Giáp, P. Thạnh Xuân, Q. 12","Phone":"(08)37160433","Lat":10.8866953761945,"Long":106.683559989412,"Tag":"Tram Bao Hanh Yamaha Tran Hai (08)37160433 84/3, HA HUY GIAP, P. THANH XUAN, Q. 12"},{"Name":"Công Ty TNHH TMDV Long Thành Đạt - Đại Lý Yamaha","Address":"119/3, Hà Huy Giáp, P. Thạnh Xuân, Q. 12","Phone":"(08)54476577","Lat":10.8852467077541,"Long":106.681650256594,"Tag":"Cong Ty TNHH TMDV Long Thanh Dat - Dai Ly Yamaha (08)54476577 119/3, HA HUY GIAP, P. THANH XUAN, Q. 12"},{"Name":"DNTN Mai An - Yamaha","Address":"50, Lê Văn Việt, P. Hiệp Phú, Q. 9","Phone":"(08)54093144","Lat":10.8459087194602,"Long":106.778815960345,"Tag":"DNTN Mai An - Yamaha (08)54093144 50, LE VAN VIET, P. HIEP PHU, Q. 9"},{"Name":"Công Ty TNHH Sản Xuất Thương Mại Minh Quang - Đại Lý Yamaha","Address":"327, Huỳnh Tấn Phát, P. Tân Thuận Đông, Q. 7","Phone":"(08)38720755","Lat":10.7510274409352,"Long":106.728615736434,"Tag":"Cong Ty TNHH San Xuat Thuong Mai Minh Quang - Dai Ly Yamaha (08)38720755, (08)38733969 327, HUYNH TAN PHAT, P. TAN THUAN DONG, Q. 7"},{"Name":"Công Ty TNHH Hà Chương - Đại Lý Yamaha 3S","Address":"1035 (265B Cũ), Cách Mạng Tháng 8, P. 7, Q. Tân Bình","Phone":"(08)38641656","Lat":10.7912526255632,"Long":106.656421398606,"Tag":"Cong Ty TNHH Ha Chuong - Dai Ly Yamaha 3S (08)38641656 1035 (265B CU), CACH MANG THANG 8, P. 7, Q. TAN BINH"},{"Name":"Trung Tâm Dịch Vụ - Phụ Tùng Yamaha","Address":"627, Cách Mạng Tháng 8, P. 15, Q. 10","Phone":"(08)39770730","Lat":10.7854507919091,"Long":106.667541837179,"Tag":"Trung Tam Dich Vu - Phu Tung Yamaha (08)39770730 627, CACH MANG THANG 8, P. 15, Q. 10"},{"Name":"Đại Lý Xe Máy Yamaha 3S - Công Ty TNHH Tân Hoàng Linh","Address":"447A, Cộng Hòa, P. 15, Q. Tân Bình","Phone":"(08)38426535","Lat":10.8051691923276,"Long":106.636819815129,"Tag":"Dai Ly Xe May Yamaha 3S - Cong Ty TNHH Tan Hoang Linh (08)38426535 447A, CONG HOA, P. 15, Q. TAN BINH"},{"Name":"Đại Lý Yamaha","Address":"100M-N-O-P, Hùng Vương, P. 9, Q. 5","Phone":"(08)38330470","Lat":10.7577469433733,"Long":106.669859265767,"Tag":"Dai Ly Yamaha (08)38330470 100M-N-O-P, HUNG VUONG, P. 9, Q. 5"},{"Name":"Công Ty TNHH Liên Việt Nhật - Đại Lý Yamaha","Address":"221A, Hoàng Văn Thụ, P. 8, Q. Phú Nhuận","Phone":"(08)38444807","Lat":10.79998941717,"Long":106.670631741963,"Tag":"Cong Ty TNHH Lien Viet Nhat - Dai Ly Yamaha (08)38444807 221A, HOANG VAN THU, P. 8, Q. PHU NHUAN"},{"Name":"Đại Lý Xe Máy Yamaha","Address":"22Bis, Nguyễn Thị Minh Khai, P. Đa Kao, Q. 1","Phone":"(08)39103609","Lat":10.7898403820852,"Long":106.704524135068,"Tag":"Dai Ly Xe May Yamaha (08)39103609 22BIS, NGUYEN THI MINH KHAI, P. DA KAO, Q. 1"},{"Name":"Trạm Bảo Hành & Bán Phụ Tùng Chính Hãng Yamaha","Address":"229, Phạm Hùng, P. 4, Q. 8","Phone":"(08)38507792","Lat":10.7384628875312,"Long":106.670111393414,"Tag":"Tram Bao Hanh & Ban Phu Tung Chinh Hang Yamaha (08)38507792 229, PHAM HUNG, P. 4, Q. 8"},{"Name":"Công Ty TNHH MTV Motor Ngọc Phát - Đại Lý Yamaha","Address":"117A, Lê Văn Khương, P. Hiệp Thành, Q. 12","Phone":"(08)37178768","Lat":10.8662553304101,"Long":106.649458384004,"Tag":"Cong Ty TNHH MTV Motor Ngoc Phat - Dai Ly Yamaha (08)37178768 117A, LE VAN KHUONG, P. HIEP THANH, Q. 12"},{"Name":"Công Ty CP Mạnh Hưng - Đại Lý Yamaha","Address":"1310, Huỳnh Tấn Phát, P. Phú Mỹ, Q. 7","Phone":"(08)37853252","Lat":10.7150347140291,"Long":106.736850118108,"Tag":"Cong Ty CP Manh Hung - Dai Ly Yamaha (08)37853252 1310, HUYNH TAN PHAT, P. PHU MY, Q. 7"},{"Name":"Công Ty TNHH Minh Hồng Phát - Đại Lý Yamaha","Address":"597, Nguyễn Kiệm, P. 9, Q. Phú Nhuận","Phone":"","Lat":10.8063126301439,"Long":106.678560351809,"Tag":"Cong Ty TNHH Minh Hong Phat - Dai Ly Yamaha  597, NGUYEN KIEM, P. 9, Q. PHU NHUAN"},{"Name":"Công Ty TNHH TMDV MTV Xanh - Đại Lý Yamaha","Address":"40, Đỗ Xuân Hợp, P. Phước Long A, Q. 9","Phone":"(08)37283171","Lat":10.8329318951249,"Long":106.767121529043,"Tag":"Cong Ty TNHH TMDV MTV Xanh - Dai Ly Yamaha (08)37283171 40, DO XUAN HOP, P. PHUOC LONG A, Q. 9"},{"Name":"Đại Lý Xe Máy Yamaha 3S - Công Ty TNHH Tuấn Phát","Address":"317-319, Nguyễn Sơn, P. Phú Thạnh, Q. Tân Phú","Phone":"(08)39782906","Lat":10.7843020050306,"Long":106.622099852059,"Tag":"Dai Ly Xe May Yamaha 3S - Cong Ty TNHH Tuan Phat (08)39782906, (08)37560586 317-319, NGUYEN SON, P. PHU THANH, Q. TAN PHU"},{"Name":"Công Ty TNHH TM & DV Nhất Trung - Đại Lý Yamaha","Address":"2/4, Trường Chinh, P. Tân Thới Nhất, Q. 12","Phone":"(08)54361450","Lat":10.8262825694435,"Long":106.625892495605,"Tag":"Cong Ty TNHH TM & DV Nhat Trung - Dai Ly Yamaha (08)54361450, (08)35926142 2/4, TRUONG CHINH, P. TAN THOI NHAT, Q. 12"},{"Name":"Công Ty TNHH Lộc Đại Phát - Cửa Hàng Yamaha","Address":"306A, Điện Biên Phủ, P. 4, Q. 3","Phone":"(08)38390464","Lat":10.7763183420257,"Long":106.683307861765,"Tag":"Cong Ty TNHH Loc Dai Phat - Cua Hang Yamaha (08)38390464 306A, DIEN BIEN PHU, P. 4, Q. 3"},{"Name":"Lớp Nhạc Yamaha","Address":"112, Điện Biên Phủ, P. Đa Kao, Q. 1","Phone":"","Lat":10.7896348684888,"Long":106.696600889639,"Tag":"Lop Nhac Yamaha  112, DIEN BIEN PHU, P. DA KAO, Q. 1"},{"Name":"Cửa Hàng Xe Máy Yamaha 3S Tường Viên","Address":"463B, Nguyễn Thị Tú, P. Bình Hưng Hòa B, Q. Bình Tân","Phone":"(08)73076835","Lat":10.8148751020552,"Long":106.584908341867,"Tag":"Cua Hang Xe May Yamaha 3S Tuong Vien (08)73076835 463B, NGUYEN THI TU, P. BINH HUNG HOA B, Q. BINH TAN"},{"Name":"Công Ty TNHH Tuyết Khôi - Đại Lý Yamaha","Address":"101-103, Lê Văn Quới, P. Bình Trị Đông, Q. Bình Tân","Phone":"(08)54002570","Lat":10.7744317425392,"Long":106.618875836824,"Tag":"Cong Ty TNHH Tuyet Khoi - Dai Ly Yamaha (08)54002570 101-103, LE VAN QUOI, P. BINH TRI DONG, Q. BINH TAN"},{"Name":"Công Ty TNHH TMDV Tuấn Trúc - Đại Lý Yamaha","Address":"481-483, Tùng Thiện Vương, P. 12, Q. 8","Phone":"(08)22407038","Lat":10.7445502259709,"Long":106.656737899269,"Tag":"Cong Ty TNHH TMDV Tuan Truc - Dai Ly Yamaha (08)22407038, (08)73963009 481-483, TUNG THIEN VUONG, P. 12, Q. 8"},{"Name":"Công Ty TNHH Trường An - Đại Lý Yamaha","Address":"2Bis, Nguyễn Thị Minh Khai, P. Đa Kao, Q. 1","Phone":"(08)38229899","Lat":10.7897297209354,"Long":106.704609965756,"Tag":"Cong Ty TNHH Truong An - Dai Ly Yamaha (08)38229899 2BIS, NGUYEN THI MINH KHAI, P. DA KAO, Q. 1"},{"Name":"Công Ty TNHH Long Thành Đạt - Đại Lý Yamaha","Address":"9/52 (Số Cũ A6), Quang Trung, P. 12, Q. Gò Vấp","Phone":"(08)39877775","Lat":10.8436853652337,"Long":106.641046976536,"Tag":"Cong Ty TNHH Long Thanh Dat - Dai Ly Yamaha (08)39877775 9/52 (SO CU A6), QUANG TRUNG, P. 12, Q. GO VAP"},{"Name":"Công Ty TNHH Minh Hồng Phát - Đại Lý Yamaha","Address":"828-830, Quốc Lộ 13, P. Hiệp Bình Phước, Q. Thủ Đức","Phone":"(08)37273568","Lat":10.8640163227597,"Long":106.724624609421,"Tag":"Cong Ty TNHH Minh Hong Phat - Dai Ly Yamaha (08)37273568 828-830, QUOC LO 13, P. HIEP BINH PHUOC, Q. THU DUC"},{"Name":"Công Ty TNHH Dũng Tiến - Đại Lý Yamaha","Address":"624, Kinh Dương Vương, P. An Lạc A, Q. Bình Tân","Phone":"(08)54009034","Lat":10.7291445423043,"Long":106.608458137012,"Tag":"Cong Ty TNHH Dung Tien - Dai Ly Yamaha (08)54009034 624, KINH DUONG VUONG, P. AN LAC A, Q. BINH TAN"},{"Name":"Công Ty TNHH Thanh Long - Cửa Hàng Chuyên Doanh Xe Máy Yamaha","Address":"Lô B 05, Tô Ký, P. Tân Chánh Hiệp, Q. 12","Phone":"(08)62764456","Lat":10.8609817820609,"Long":106.617561554407,"Tag":"Cong Ty TNHH Thanh Long - Cua Hang Chuyen Doanh Xe May Yamaha (08)62764456 LO B 05, TO KY, P. TAN CHANH HIEP, Q. 12"},{"Name":"Trạm Bảo Hành Xe Yamaha","Address":"381, Hồng Bàng, P. 14, Q. 5","Phone":"","Lat":10.7543582247736,"Long":106.657655214752,"Tag":"Tram Bao Hanh Xe Yamaha  381, HONG BANG, P. 14, Q. 5"},{"Name":"Trạm Bảo Hành Yamaha","Address":"1511-1513, 3 Tháng 2, P. 16, Q. 11","Phone":"(08)39606178","Lat":10.7561290062719,"Long":106.645773028819,"Tag":"Tram Bao Hanh Yamaha (08)39606178 1511-1513, 3 THANG 2, P. 16, Q. 11"},{"Name":"Đại Lý Yamaha","Address":"65, Quốc Lộ 22, X. Tân Thới Nhì, H. Hóc Môn","Phone":"","Lat":10.8925900671129,"Long":106.580809926493,"Tag":"Dai Ly Yamaha  65, QUOC LO 22, X. TAN THOI NHI, H. HOC MON"},{"Name":"Đại Lý Yamaha","Address":"564C, Lê Quang Định, P. 1, Q. Gò Vấp","Phone":"","Lat":10.8173673941116,"Long":106.689020966965,"Tag":"Dai Ly Yamaha  564C, LE QUANG DINH, P. 1, Q. GO VAP"},{"Name":"Đại Lý Yamaha","Address":"31/11, Cộng Hòa, P. 15, Q. Tân Bình","Phone":"","Lat":10.8048477643231,"Long":106.637002205342,"Tag":"Dai Ly Yamaha  31/11, CONG HOA, P. 15, Q. TAN BINH"},{"Name":"Đại Lý Yamaha","Address":"683, Âu Cơ, P. Tân Thành, Q. Tân Phú","Phone":"","Lat":10.7886283767958,"Long":106.6407090182,"Tag":"Dai Ly Yamaha  683, AU CO, P. TAN THANH, Q. TAN PHU"},{"Name":"Đại Lý Yamaha","Address":"577, Nguyễn Kiệm, P. 9, Q. Phú Nhuận","Phone":"","Lat":10.805495889291,"Long":106.678603267154,"Tag":"Dai Ly Yamaha  577, NGUYEN KIEM, P. 9, Q. PHU NHUAN"},{"Name":"Đại Lý Yamaha","Address":"101, Hoàng Văn Thụ, P. 8, Q. Phú Nhuận","Phone":"","Lat":10.7992780473785,"Long":106.677353357753,"Tag":"Dai Ly Yamaha  101, HOANG VAN THU, P. 8, Q. PHU NHUAN"},{"Name":"Đại Lý Yamaha","Address":"148, Lê Văn Sỹ, P. 10, Q. Phú Nhuận","Phone":"","Lat":10.7921800654321,"Long":106.671119904004,"Tag":"Dai Ly Yamaha  148, LE VAN SY, P. 10, Q. PHU NHUAN"},{"Name":"Đại Lý Yamaha","Address":"125, Phan Đăng Lưu, P. 2, Q. Phú Nhuận","Phone":"","Lat":10.8031457709576,"Long":106.684482669313,"Tag":"Dai Ly Yamaha  125, PHAN DANG LUU, P. 2, Q. PHU NHUAN"},{"Name":"Đại Lý Yamaha","Address":"3, Đinh Bộ Lĩnh, P. 24, Q. Bình Thạnh","Phone":"","Lat":10.8035040861521,"Long":106.7094433064,"Tag":"Dai Ly Yamaha  3, DINH BO LINH, P. 24, Q. BINH THANH"},{"Name":"Đại Lý Yamaha","Address":"17, Nơ Trang Long, P. 7, Q. Bình Thạnh","Phone":"","Lat":10.8064549009039,"Long":106.695045208411,"Tag":"Dai Ly Yamaha  17, NO TRANG LONG, P. 7, Q. BINH THANH"},{"Name":"Đại Lý Yamaha","Address":"224/5Bis, Quốc Lộ 13, P. 26, Q. Bình Thạnh","Phone":"","Lat":10.8160922705308,"Long":106.713026737643,"Tag":"Dai Ly Yamaha  224/5BIS, QUOC LO 13, P. 26, Q. BINH THANH"},{"Name":"Đại Lý Yamaha","Address":"439, Trường Chinh, P. 13, Q. Tân Bình","Phone":"","Lat":10.7963798567418,"Long":106.646781539408,"Tag":"Dai Ly Yamaha  439, TRUONG CHINH, P. 13, Q. TAN BINH"},{"Name":"Đại Lý Yamaha","Address":"4, Cộng Hòa, P. 4, Q. Tân Bình","Phone":"","Lat":10.8008377893111,"Long":106.661292290175,"Tag":"Dai Ly Yamaha  4, CONG HOA, P. 4, Q. TAN BINH"},{"Name":"Công Ty TNHH TM - DV Visa Coop - Đại Lý Yamaha","Address":"478-480-482, Cộng Hòa, P. 13, Q. Tân Bình","Phone":"(08)38105159","Lat":10.8024976409166,"Long":106.641411756962,"Tag":"Cong Ty TNHH TM - DV Visa Coop - Dai Ly Yamaha (08)38105159 478-480-482, CONG HOA, P. 13, Q. TAN BINH"},{"Name":"Đại Lý Yamaha","Address":"212B, Nguyễn Trãi, P. Nguyễn Cư Trinh, Q. 1","Phone":"","Lat":10.7649722177595,"Long":106.687642311532,"Tag":"Dai Ly Yamaha  212B, NGUYEN TRAI, P. NGUYEN CU TRINH, Q. 1"},{"Name":"Đại Lý Yamaha","Address":"48-52, Trần Hưng Đạo, P. Phạm Ngũ Lão, Q. 1","Phone":"","Lat":10.7665426775341,"Long":106.694111799674,"Tag":"Dai Ly Yamaha  48-52, TRAN HUNG DAO, P. PHAM NGU LAO, Q. 1"},{"Name":"Đại Lý Yamaha","Address":"270, Nam Kỳ Khởi Nghĩa, P. 8, Q. 3","Phone":"","Lat":10.7881383037047,"Long":106.685829138238,"Tag":"Dai Ly Yamaha  270, NAM KY KHOI NGHIA, P. 8, Q. 3"},{"Name":"Đại Lý Yamaha","Address":"114/187, Nguyễn Sơn, P. Phú Thạnh, Q. Tân Phú","Phone":"","Lat":10.7832902257975,"Long":106.624846434089,"Tag":"Dai Ly Yamaha  114/187, NGUYEN SON, P. PHU THANH, Q. TAN PHU"},{"Name":"Đại Lý Yamaha","Address":"22, Võ Văn Tần, P. 6, Q. 3","Phone":"","Lat":10.779654116092,"Long":106.693210577445,"Tag":"Dai Ly Yamaha  22, VO VAN TAN, P. 6, Q. 3"},{"Name":"Đại Lý Yamaha","Address":"155, Nguyễn Chí Thanh, P. 12, Q. 5","Phone":"","Lat":10.7592278488767,"Long":106.665583824598,"Tag":"Dai Ly Yamaha  155, NGUYEN CHI THANH, P. 12, Q. 5"},{"Name":"Đại Lý Yamaha","Address":"9-11, Trần Phú, P. 4, Q. 5","Phone":"","Lat":10.7639603735694,"Long":106.680335974177,"Tag":"Dai Ly Yamaha  9-11, TRAN PHU, P. 4, Q. 5"},{"Name":"Đại Lý Yamaha","Address":"87-87B, Hùng Vương, P. 4, Q. 5","Phone":"","Lat":10.7621896380626,"Long":106.676452135524,"Tag":"Dai Ly Yamaha  87-87B, HUNG VUONG, P. 4, Q. 5"},{"Name":"Đại Lý Yamaha","Address":"342-346, 3 Tháng 2, P. 12, Q. 10","Phone":"","Lat":10.7696203333528,"Long":106.670454716168,"Tag":"Dai Ly Yamaha  342-346, 3 THANG 2, P. 12, Q. 10"},{"Name":"Đại Lý Yamaha","Address":"1C-1D, 3 Tháng 2, P. 11, Q. 10","Phone":"","Lat":10.7774935083554,"Long":106.68133375593,"Tag":"Dai Ly Yamaha  1C-1D, 3 THANG 2, P. 11, Q. 10"},{"Name":"Đại Lý Yamaha","Address":"255, Lý Thường Kiệt, P. 15, Q. 11","Phone":"","Lat":10.7724977023029,"Long":106.657515739883,"Tag":"Dai Ly Yamaha  255, LY THUONG KIET, P. 15, Q. 11"},{"Name":"Đại Lý Yamaha","Address":"116/4, Trường Chinh, P. Tân Hưng Thuận, Q. 12","Phone":"","Lat":10.8278369020576,"Long":106.624942993614,"Tag":"Dai Ly Yamaha  116/4, TRUONG CHINH, P. TAN HUNG THUAN, Q. 12"},{"Name":"Đại Lý Yamaha","Address":"672, Lê Quang Định, P. 1, Q. Gò Vấp","Phone":"","Lat":10.8202917272999,"Long":106.689637875038,"Tag":"Dai Ly Yamaha  672, LE QUANG DINH, P. 1, Q. GO VAP"},{"Name":"Đại Lý Yamaha","Address":"6/7, Quang Trung, P. 10, Q. Gò Vấp","Phone":"","Lat":10.8267620423981,"Long":106.679547404727,"Tag":"Dai Ly Yamaha  6/7, QUANG TRUNG, P. 10, Q. GO VAP"},{"Name":"Đại Lý Yamaha","Address":"105-107, Kha Vạn Cân, P. Linh Tây, Q. Thủ Đức","Phone":"","Lat":10.8487853570342,"Long":106.753163313333,"Tag":"Dai Ly Yamaha  105-107, KHA VAN CAN, P. LINH TAY, Q. THU DUC"},{"Name":"Đại Lý Yamaha","Address":"2, Trường Chinh, P. Tây Thạnh, Q. Tân Phú","Phone":"","Lat":10.8166033744353,"Long":106.63170216033,"Tag":"Dai Ly Yamaha  2, TRUONG CHINH, P. TAY THANH, Q. TAN PHU"},{"Name":"Đại Lý Yamaha","Address":"Ôx1, Quốc Lộ 22, X. Tân Thới Nhì, H. Hóc Môn","Phone":"","Lat":10.8934171055663,"Long":106.58030030678,"Tag":"Dai Ly Yamaha  OX1, QUOC LO 22, X. TAN THOI NHI, H. HOC MON"},{"Name":"Đại Lý Yamaha","Address":"B15/7-B15/7A, Quốc Lộ 50, X. Bình Hưng, H. Bình Chánh","Phone":"","Lat":10.7295451105642,"Long":106.656045889344,"Tag":"Dai Ly Yamaha  B15/7-B15/7A, QUOC LO 50, X. BINH HUNG, H. BINH CHANH"},{"Name":"Yamaha Auto Center Co., LTD","Address":"243-243B, Hoàng Văn Thụ, P. 1, Q. Tân Bình","Phone":"(08)39970730","Lat":10.8001738461001,"Long":106.667622303449,"Tag":"Yamaha Auto Center Co., LTD (08)39970730 243-243B, HOANG VAN THU, P. 1, Q. TAN BINH"},{"Name":"Yamaha Corp","Address":"2, Thi Sách, P. Bến Nghé, Q. 1","Phone":"(08)38244256","Lat":10.7758177092361,"Long":106.706289028599,"Tag":"Yamaha Corp (08)38244256 2, THI SACH, P. BEN NGHE, Q. 1"},{"Name":"Công Ty TNHH MTV Dịch Vụ Thương Mại Thanh Ðào - Đại Lý Yamaha","Address":"1260, Kha Vạn Cân, P. Linh Trung, Q. Thủ Đức","Phone":"(08)37246154","Lat":10.8639267621043,"Long":106.761091923179,"Tag":"Cong Ty TNHH MTV Dich Vu Thuong Mai Thanh Dao - Dai Ly Yamaha (08)37246154 1260, KHA VAN CAN, P. LINH TRUNG, Q. THU DUC"},{"Name":"Công Ty CP Vạn Phong Sài Gòn - Đại Lý Yamaha","Address":"168, Dương Bá Trạc, P. 2, Q. 8","Phone":"(08)62607289","Lat":10.7471748587104,"Long":106.688892220932,"Tag":"Cong Ty CP Van Phong Sai Gon - Dai Ly Yamaha (08)62607289 168, DUONG BA TRAC, P. 2, Q. 8"},{"Name":"Công Ty TNHH TMDV Minh Ngọc Anh - Đại Lý Yamaha","Address":"506, Tỉnh Lộ 10, P. Bình Trị Đông B, Q. Bình Tân","Phone":"(08)38172126","Lat":10.7574149244154,"Long":106.618537878488,"Tag":"Cong Ty TNHH TMDV Minh Ngoc Anh - Dai Ly Yamaha (08)38172126 506, TINH LO 10, P. BINH TRI DONG B, Q. BINH TAN"},{"Name":"Cửa Hàng Đông Nam 3 - Đại Lý Yamaha","Address":"230, Bạch Đằng, P. 24, Q. Bình Thạnh","Phone":"","Lat":10.8033881606948,"Long":106.704905008748,"Tag":"Cua Hang Dong Nam 3 - Dai Ly Yamaha  230, BACH DANG, P. 24, Q. BINH THANH"},{"Name":"Cửa Hàng Lâm Hạnh - Đại Lý Yamaha","Address":"143B-143C, Khánh Hội, P. 3, Q. 4","Phone":"","Lat":10.7563029217513,"Long":106.700919246152,"Tag":"Cua Hang Lam Hanh - Dai Ly Yamaha  143B-143C, KHANH HOI, P. 3, Q. 4"},{"Name":"Cửa Hàng Lộc Đại Phát 2 - Đại Lý Yamaha","Address":"249, Lý Thường Kiệt, P. 15, Q. 11","Phone":"(08)62935928","Lat":10.7719338244729,"Long":106.657719587768,"Tag":"Cua Hang Loc Dai Phat 2 - Dai Ly Yamaha (08)62935928 249, LY THUONG KIET, P. 15, Q. 11"},{"Name":"Đại Lý Xe Máy Yamaha 3S - Long Thành Đạt 4","Address":"594C, Lê Quang Định, P. 1, Q. Gò Vấp","Phone":"(08)54476577","Lat":10.8189006966916,"Long":106.689712976891,"Tag":"Dai Ly Xe May Yamaha 3S - Long Thanh Dat 4 (08)54476577 594C, LE QUANG DINH, P. 1, Q. GO VAP"},{"Name":"Cửa Hàng Mai An - Đại Lý Yamaha","Address":"1060/4, Kha Vạn Cân, P. Linh Chiểu, Q. Thủ Đức","Phone":"(08)38960055","Lat":10.8567407490419,"Long":106.7568433041,"Tag":"Cua Hang Mai An - Dai Ly Yamaha (08)38960055 1060/4, KHA VAN CAN, P. LINH CHIEU, Q. THU DUC"},{"Name":"Cửa Hàng Minh Hồng Phúc - Đại Lý Yamaha","Address":"206B, Lê Văn Sỹ, P. 10, Q. Phú Nhuận","Phone":"(08)38426224","Lat":10.7939875110444,"Long":106.668609356366,"Tag":"Cua Hang Minh Hong Phuc - Dai Ly Yamaha (08)38426224 206B, LE VAN SY, P. 10, Q. PHU NHUAN"},{"Name":"Cửa Hàng Minh Quang 2 - Đại Lý Yamaha","Address":"354-356, 3 Tháng 2, P. 12, Q. 10","Phone":"(08)38720755","Lat":10.7694727752298,"Long":106.67034206339,"Tag":"Cua Hang Minh Quang 2 - Dai Ly Yamaha (08)38720755 354-356, 3 THANG 2, P. 12, Q. 10"},{"Name":"Cửa Hàng Thắng Phát - Đại Lý Yamaha","Address":"125, Tân Sơn Nhì, P. Tân Sơn Nhì, Q. Tân Phú","Phone":"(08)62939775","Lat":10.8010696421501,"Long":106.633236383886,"Tag":"Cua Hang Thang Phat - Dai Ly Yamaha (08)62939775 125, TAN SON NHI, P. TAN SON NHI, Q. TAN PHU"},{"Name":"Cửa Hàng Tường Viên - Đại Lý Yamaha","Address":"710B, Kinh Dương Vương, P. 13, Q. 6","Phone":"(08)38750457","Lat":10.750837711635,"Long":106.629953360053,"Tag":"Cua Hang Tuong Vien - Dai Ly Yamaha (08)38750457 710B, KINH DUONG VUONG, P. 13, Q. 6"},{"Name":"Cửa Hàng Tường Viên 2 - Đại Lý Yamaha","Address":"150/26A, Nguyễn Trãi, P. Bến Thành, Q. 1","Phone":"(08)38750457","Lat":10.770157865904,"Long":106.689895367104,"Tag":"Cua Hang Tuong Vien 2 - Dai Ly Yamaha (08)38750457 150/26A, NGUYEN TRAI, P. BEN THANH, Q. 1"},{"Name":"Cửa Hàng Xe Máy Yamaha","Address":"145, Nguyễn Tất Thành, P. 13, Q. 4","Phone":"","Lat":10.7619946457192,"Long":106.709196543171,"Tag":"Cua Hang Xe May Yamaha  145, NGUYEN TAT THANH, P. 13, Q. 4"},{"Name":"Trung Tâm Xe Máy Yamaha 3S Hòa Bình","Address":"122-124-126, An Dương Vương, P. 9, Q. 5","Phone":"(08)38558358","Lat":10.7567,"Long":106.669,"Tag":"Trung Tam Xe May Yamaha 3S Hoa Binh (08)38558358 122-124-126, AN DUONG VUONG, P. 9, Q. 5"},{"Name":"Công Ty TNHH TM Long Thành Đạt - Đại Lý Yamaha","Address":"0, Phan Văn Trị, P. 10, Q. Gò Vấp","Phone":"","Lat":10.8313354381629,"Long":106.676178550205,"Tag":"Cong Ty TNHH TM Long Thanh Dat - Dai Ly Yamaha  0, PHAN VAN TRI, P. 10, Q. GO VAP"},{"Name":"Công Ty TNHH Long Thàng Đạt - Đại Lý Xe Máy Yamaha","Address":"0, Quang Trung, P. 12, Q. Gò Vấp","Phone":"","Lat":10.8436800966022,"Long":106.641009425609,"Tag":"Cong Ty TNHH Long Thang Dat - Dai Ly Xe May Yamaha  0, QUANG TRUNG, P. 12, Q. GO VAP"},{"Name":"Công Ty TNHH King Kim Long - Đại Lý Yamaha","Address":"475, Lê Quang Định, P. 1, Q. Gò Vấp","Phone":"(08)35888196","Lat":10.8170143645721,"Long":106.6887634749,"Tag":"Cong Ty TNHH King Kim Long - Dai Ly Yamaha (08)35888196 475, LE QUANG DINH, P. 1, Q. GO VAP"},{"Name":"Trạm Bảo Hành Yamaha - Phụng Tùng Xe Chính Hãng","Address":"0, Phan Văn Trị, P. 2, Q. 5","Phone":"","Lat":10.7558971188101,"Long":106.678163384875,"Tag":"Tram Bao Hanh Yamaha - Phung Tung Xe Chinh Hang  0, PHAN VAN TRI, P. 2, Q. 5"},{"Name":"Đại Lý Xe Yamaha Thắng Phát","Address":"129, Tân Sơn Nhì, P. Tân Sơn Nhì, Q. Tân Phú","Phone":"","Lat":10.8010169483387,"Long":106.633107637853,"Tag":"Dai Ly Xe Yamaha Thang Phat  129, TAN SON NHI, P. TAN SON NHI, Q. TAN PHU"},{"Name":"Công Ty TNHH TM DV Thanh Thanh An - Đại Lý YAMAHA","Address":"D6/51K, Quốc Lộ 1A, X. Bình Chánh, H. Bình Chánh","Phone":"(08)62684070","Lat":10.6699758476903,"Long":106.576309179767,"Tag":"Cong Ty TNHH TM DV Thanh Thanh An - Dai Ly YAMAHA (08)62684070 D6/51K, QUOC LO 1A, X. BINH CHANH, H. BINH CHANH"},{"Name":"Cửa Hàng Xe Máy Yamaha Tuấn Trúc 2","Address":"0, Phạm Hùng, X. Bình Hưng, H. Bình Chánh","Phone":"","Lat":10.7321487913176,"Long":106.674617504558,"Tag":"Cua Hang Xe May Yamaha Tuan Truc 2  0, PHAM HUNG, X. BINH HUNG, H. BINH CHANH"},{"Name":"Đại Lý Yamaha - Minh Hồng Phúc 1","Address":"861, Lũy Bán Bích, P. Tân Thành, Q. Tân Phú","Phone":"","Lat":10.7888338910802,"Long":106.637114858121,"Tag":"Dai Ly Yamaha - Minh Hong Phuc 1  861, LUY BAN BICH, P. TAN THANH, Q. TAN PHU"},{"Name":"Công Ty TNHH Quang Hùng Phương - Trạm Bảo Hành Yamaha - Honda","Address":"43, Nguyễn Thị Nhỏ, P. 9, Q. Tân Bình","Phone":"","Lat":10.769831130546,"Long":106.65265557715,"Tag":"Cong Ty TNHH Quang Hung Phuong - Tram Bao Hanh Yamaha - Honda  43, NGUYEN THI NHO, P. 9, Q. TAN BINH"},{"Name":"Công Ty TNHH TM Công Thành - Đại Lý Yamaha","Address":"517, Kha Vạn Cân, P. Linh Đông, Q. Thủ Đức","Phone":"(08)38965354","Lat":10.8444703902961,"Long":106.749247288172,"Tag":"Cong Ty TNHH TM Cong Thanh - Dai Ly Yamaha (08)38965354 517, KHA VAN CAN, P. LINH DONG, Q. THU DUC"},{"Name":"Công Ty TNHH Xe Máy Đông Nam - Đại Lý Yamaha","Address":"36-38, Phan Đăng Lưu, P. 5, Q. Phú Nhuận","Phone":"(08)35511226","Lat":10.803862400919,"Long":106.687272166688,"Tag":"Cong Ty TNHH Xe May Dong Nam - Dai Ly Yamaha Cong Ty TNHH Xe May Dong Nam (08)35511226, (08)35511227 36-38, PHAN DANG LUU, P. 5, Q. PHU NHUAN"},{"Name":"Đại Lý Yamaha","Address":"311A, Lê Văn Sỹ, P. 13, Q. 3","Phone":"","Lat":10.787600803267,"Long":106.67828676649,"Tag":"Dai Ly Yamaha  311A, LE VAN SY, P. 13, Q. 3"},{"Name":"Công Ty TNHH TMDV Tân Hoàng Hiệp - Đại Lý Yamaha","Address":"445-447-449, Cách Mạng Tháng 8, P. 13, Q. 10","Phone":"(08)38640741","Lat":10.7815301433982,"Long":106.674644326649,"Tag":"Cong Ty TNHH TMDV Tan Hoang Hiep - Dai Ly Yamaha (08)38640741 445-447-449, CACH MANG THANG 8, P. 13, Q. 10"},{"Name":"Công Ty TNHH Tân Trung Đông - Đại Lý Yamaha","Address":"46, Điện Biên Phủ, P. Đa Kao, Q. 1","Phone":"(08)38209046","Lat":10.791147234488,"Long":106.697974180655,"Tag":"Cong Ty TNHH Tan Trung Dong - Dai Ly Yamaha (08)38209046, (08)38201559 46, DIEN BIEN PHU, P. DA KAO, Q. 1"},{"Name":"Công Ty TNHH TMDV Hồng Hải Anh - Đại Lý Yamaha","Address":"101, Nơ Trang Long, P. 11, Q. Bình Thạnh","Phone":"(08)35511136","Lat":10.8104700700998,"Long":106.695109581428,"Tag":"Cong Ty TNHH TMDV Hong Hai Anh - Dai Ly Yamaha (08)35511136 101, NO TRANG LONG, P. 11, Q. BINH THANH"},{"Name":"Cửa Hàng Yamaha Lê Liêm","Address":"89, Bàn Cờ, P. 3, Q. 3","Phone":"(08)38332908","Lat":10.7715702017609,"Long":106.678399419269,"Tag":"Cua Hang Yamaha Le Liem (08)38332908 89, BAN CO, P. 3, Q. 3"},{"Name":"Đại Lý Yamaha 3S Đông Nam","Address":"192, Trần Quang Khải, P. Tân Định, Q. 1","Phone":"(08)38484825","Lat":10.7913685557033,"Long":106.688758110482,"Tag":"Dai Ly Yamaha 3S Dong Nam (08)38484825, (08)38481808 192, TRAN QUANG KHAI, P. TAN DINH, Q. 1"},{"Name":"Công Ty TNHH Xe Máy An Phú - Đại Lý Yamaha","Address":"153-153A, Trần Não, P. Bình An, Q. 2","Phone":"(08)62819299","Lat":10.791147234488,"Long":106.730493282744,"Tag":"Cong Ty TNHH Xe May An Phu - Dai Ly Yamaha (08)62819299, (08)66760929 153-153A, TRAN NAO, P. BINH AN, Q. 2"},{"Name":"Công Ty TNHH TM DV Minh Ngọc Anh - Đại Lý Yamaha","Address":"147Bis, Nguyễn Tất Thành, P. 13, Q. 4","Phone":"(08)39406743","Lat":10.7618892444,"Long":106.709309195949,"Tag":"Cong Ty TNHH TM DV Minh Ngoc Anh - Dai Ly Yamaha (08)39406743, (08)38296845 147BIS, NGUYEN TAT THANH, P. 13, Q. 4"},{"Name":"Cửa Hàng Quang Hùng Phương (Yamaha)","Address":"131, Châu Văn Liêm, P. 14, Q. 5","Phone":"(08)38553358","Lat":10.7540420126979,"Long":106.65834186026,"Tag":"Cua Hang Quang Hung Phuong (Yamaha) (08)38553358 131, CHAU VAN LIEM, P. 14, Q. 5"},{"Name":"Công Ty TNHH TM Đinh Anh - Đại Lý Yamaha 3S Đinh Anh","Address":"481, Nguyễn Thị Thập, P. Tân Phong, Q. 7","Phone":"(08)37718187","Lat":10.7391849418801,"Long":106.707898354008,"Tag":"Cong Ty TNHH TM Dinh Anh - Dai Ly Yamaha 3S Dinh Anh (08)37718187, (08)62710689 481, NGUYEN THI THAP, P. TAN PHONG, Q. 7"},{"Name":"Công Ty TNHH Hùng Thịnh - Đại Lý Yamaha 3S Hùng Thịnh","Address":"34-36, Hòa Bình, P. 5, Q. 11","Phone":"(08)38606826","Lat":10.7671065654561,"Long":106.641492223232,"Tag":"Cong Ty TNHH Hung Thinh - Dai Ly Yamaha 3S Hung Thinh (08)38606826 34-36, HOA BINH, P. 5, Q. 11"},{"Name":"Cửa Hàng Tín Dũng 5 - Đại Lý Yamaha","Address":"36/9A, Quang Trung, P. 10, Q. Gò Vấp","Phone":"(08)35893308","Lat":10.8328686692685,"Long":106.666726445638,"Tag":"Cua Hang Tin Dung 5 - Dai Ly Yamaha (08)35893308 36/9A, QUANG TRUNG, P. 10, Q. GO VAP"},{"Name":"Cửa Hàng Long Thành Đạt 1 - Đại Lý Yamaha","Address":"1077, Phan Văn Trị, P. 10, Q. Gò Vấp","Phone":"(08)39895003","Lat":10.8313512447092,"Long":106.676189279041,"Tag":"Cua Hang Long Thanh Dat 1 - Dai Ly Yamaha (08)39895003 1077, PHAN VAN TRI, P. 10, Q. GO VAP"},{"Name":"Đại Lý Xe Máy Yamaha 3S - Công Ty TNHH MTV TM Minh Hồng Phúc","Address":"861-863, Lũy Bán Bích, P. Tân Thành, Q. Tân Phú","Phone":"(08)38426827","Lat":10.7889182045921,"Long":106.637125586957,"Tag":"Dai Ly Xe May Yamaha 3S - Cong Ty TNHH MTV TM Minh Hong Phuc (08)38426827 861-863, LUY BAN BICH, P. TAN THANH, Q. TAN PHU"},{"Name":"Công Ty TNHH MTV Sài Gòn Phương Nam - Đại Lý Yamaha","Address":"325, Lý Tự Trọng, P. Bến Thành, Q. 1","Phone":"(08)38222615","Lat":10.7714858833882,"Long":106.693537806945,"Tag":"Cong Ty TNHH MTV Sai Gon Phuong Nam - Dai Ly Yamaha (08)38222615, (08)38222615 325, LY TU TRONG, P. BEN THANH, Q. 1"},{"Name":"Công Ty TNHH TMDV Hòa Huy Hoàng - Đại Lý Yamaha","Address":"321A-321B, Trần Hưng Đạo, P. Cô Giang, Q. 1","Phone":"(08)38373808","Lat":10.7622844991571,"Long":106.690431808907,"Tag":"Cong Ty TNHH TMDV Hoa Huy Hoang - Dai Ly Yamaha (08)38373808, (08)38373901 321A-321B, TRAN HUNG DAO, P. CO GIANG, Q. 1"},{"Name":"Đại Lý Yamaha","Address":"38, Trương Quốc Dung, P. 10, Q. Phú Nhuận","Phone":"(08)38443485","Lat":10.7972282390771,"Long":106.672434186421,"Tag":"Dai Ly Yamaha (08)38443485 38, TRUONG QUOC DUNG, P. 10, Q. PHU NHUAN"},{"Name":"Công Ty TNHH TMDV Quang Phương - Đại Lý Yamaha","Address":"461-463-465-467, Nguyễn Trãi, P. 7, Q. 5","Phone":"(08)39231299","Lat":10.7552699677362,"Long":106.672509288273,"Tag":"Cong Ty TNHH TMDV Quang Phuong - Dai Ly Yamaha (08)39231299 461-463-465-467, NGUYEN TRAI, P. 7, Q. 5"},{"Name":"Công Ty TNHH Sản Xuất TM Hoàng Chương - Đại Lý Yamaha","Address":"233, Võ Văn Ngân, P. Linh Chiểu, Q. Thủ Đức","Phone":"(08)38963278","Lat":10.8506293409217,"Long":106.76440713352,"Tag":"Cong Ty TNHH San Xuat TM Hoang Chuong - Dai Ly Yamaha (08)38963278 233, VO VAN NGAN, P. LINH CHIEU, Q. THU DUC"},{"Name":"Đại Lý Xe Máy SYM & Yamaha 3S","Address":"454, Cộng Hòa, P. 13, Q. Tân Bình","Phone":"(08)38425623","Lat":10.8024818328493,"Long":106.642291521518,"Tag":"Dai Ly Xe May SYM & Yamaha 3S (08)38425623, (08)39131401 454, CONG HOA, P. 13, Q. TAN BINH"},{"Name":"Cửa Hàng Cát Thành - Đại Lý Yamaha","Address":"209, Nguyễn Duy Trinh, P. Bình Trưng Tây, Q. 2","Phone":"(08)37437134","Lat":10.7877641613448,"Long":106.762100433768,"Tag":"Cua Hang Cat Thanh - Dai Ly Yamaha (08)37437134 209, NGUYEN DUY TRINH, P. BINH TRUNG TAY, Q. 2"},{"Name":"Đại Lý Sửa Chữa Bảo Hành Yamaha","Address":"280, Lý Tự Trọng, P. Bến Thành, Q. 1","Phone":"(08)38250809","Lat":10.77154912217,"Long":106.693596815543,"Tag":"Yamaha Warranty Agent (08)38250809 280, LY TU TRONG, P. BEN THANH, Q. 1"},{"Name":"Cửa Hàng Xe Máy Yamaha 3S - DNTN TM Hoàng","Address":"311A, Lê Văn Sỹ, P. 13, Q. 3","Phone":"(08)38467588","Lat":10.7877430828881,"Long":106.678243851146,"Tag":"Cua Hang Xe May Yamaha 3S - DNTN TM Hoang (08)38467588 311A, LE VAN SY, P. 13, Q. 3"},{"Name":"Cửa Hàng Xe Máy Yamaha 3S","Address":"1380-1384, 3 Tháng 2, P. 2, Q. 11","Phone":"(08)39606178","Lat":10.7562554902669,"Long":106.645896410434,"Tag":"Cua Hang Xe May Yamaha 3S (08)39606178 1380-1384, 3 THANG 2, P. 2, Q. 11"},{"Name":"Đại Lý Sửa Chữa Bảo Hành Yamaha","Address":"76, Quốc Lộ 13, P. 26, Q. Bình Thạnh","Phone":"(08)35112924","Lat":10.8123406358293,"Long":106.712581490947,"Tag":"Yamaha Warranty Agent (08)35112924 76, QUOC LO 13, P. 26, Q. BINH THANH"},{"Name":"Công Ty TNHH TMDV Minh Hồng Phát - Đại Lý Yamaha","Address":"76, Quốc Lộ 13, P. 26, Q. Bình Thạnh","Phone":"(08)35112925","Lat":10.8120455614467,"Long":106.712533211184,"Tag":"Cong Ty TNHH TMDV Minh Hong Phat - Dai Ly Yamaha (08)35112925 76, QUOC LO 13, P. 26, Q. BINH THANH"},{"Name":"Trung Tâm Bảo Hành & DV Yamaha","Address":"178-180, Hòa Bình, P. Hiệp Tân, Q. Tân Phú","Phone":"(08)39738174","Lat":10.7705899992201,"Long":106.630961870642,"Tag":"Trung Tam Bao Hanh & DV Yamaha (08)39738174, (08)38648826 178-180, HOA BINH, P. HIEP TAN, Q. TAN PHU"},{"Name":"Đại Lý Xe Máy Yamaha 3S","Address":"48, Kinh Dương Vương, P. 13, Q. 6","Phone":"(08)38750457","Lat":10.7509483870746,"Long":106.630141114684,"Tag":"Dai Ly Xe May Yamaha 3S (08)38750457 48, KINH DUONG VUONG, P. 13, Q. 6"},{"Name":"Công Ty TNHH Thanh Thanh An - Đại Lý Yamaha","Address":"D10/8, Quốc Lộ 1A, X. Bình Chánh, H. Bình Chánh","Phone":"(08)62684070","Lat":10.6707455100979,"Long":106.577317690356,"Tag":"Cong Ty TNHH Thanh Thanh An - Dai Ly Yamaha (08)62684070, (08)39608139 D10/8, QUOC LO 1A, X. BINH CHANH, H. BINH CHANH"},{"Name":"Cửa Hàng Xe Máy Yamaha","Address":"5, Thành Thái, P. 14, Q. 10","Phone":"","Lat":10.7692092784018,"Long":106.666372394049,"Tag":"Cua Hang Xe May Yamaha  5, THANH THAI, P. 14, Q. 10"},{"Name":"Đại Lý Yamaha","Address":"549-551, Nguyễn Tri Phương, P. 8, Q. 10","Phone":"(08)38657370","Lat":10.7674701935564,"Long":106.667139505827,"Tag":"Dai Ly Yamaha (08)38657370 549-551, NGUYEN TRI PHUONG, P. 8, Q. 10"},{"Name":"Cửa Hàng Tân Hoàng Linh 2 - Đại Lý Yamaha","Address":"736, Quốc Lộ 1A, P. Bình Hưng Hòa B, Q. Bình Tân","Phone":"(08)38755269","Lat":10.78362748592,"Long":106.594076132278,"Tag":"Cua Hang Tan Hoang Linh 2 - Dai Ly Yamaha (08)38755269 736, QUOC LO 1A, P. BINH HUNG HOA B, Q. BINH TAN"},{"Name":"Trạm Bảo Hành Yamaha","Address":"192, Trần Quang Khải, P. Tân Định, Q. 1","Phone":"(08)35265738","Lat":10.7913632861525,"Long":106.688774203736,"Tag":"Tram Bao Hanh Yamaha (08)35265738 192, TRAN QUANG KHAI, P. TAN DINH, Q. 1"},{"Name":"Đại Lý Xe Máy Yamaha 3S - Công Ty TNHH Sang Trọng","Address":"539 (Số Cũ 583), Quốc Lộ 22, Tt. Củ Chi, H. Củ Chi","Phone":"(08)37908179","Lat":10.9641335466053,"Long":106.495767807486,"Tag":"Dai Ly Xe May Yamaha 3S - Cong Ty TNHH Sang Trong (08)37908179 539 (SO CU 583), QUOC LO 22, TT. CU CHI, H. CU CHI"},{"Name":"Công Ty TNHH Sản Xuất TMDV Nhân Khoa - Đại Lý Chuyên Doanh Xe Máy SYM","Address":"40, Hoàng Văn Thụ, P. 9, Q. Phú Nhuận","Phone":"(08)39973962","Lat":10.7991463120471,"Long":106.678817843875,"Tag":"Cong Ty TNHH San Xuat TMDV Nhan Khoa - Dai Ly Chuyen Doanh Xe May SYM (08)39973962, (08)38443268 40, HOANG VAN THU, P. 9, Q. PHU NHUAN"},{"Name":"Đại Lý SYM Mạnh Quân","Address":"274, Lý Tự Trọng, P. Bến Thành, Q. 1","Phone":"(08)38291283","Lat":10.7715965512476,"Long":106.693747019248,"Tag":"Dai Ly SYM Manh Quan (08)38291283 274, LY TU TRONG, P. BEN THANH, Q. 1"},{"Name":"Trạm Bảo Hành Xe Máy SYM - Đại Lý Tiên Phong","Address":"25, Phan Đăng Lưu, P. 3, Q. Bình Thạnh","Phone":"(08)35510041","Lat":10.8031036162007,"Long":106.692448830085,"Tag":"Tram Bao Hanh Xe May SYM - Dai Ly Tien Phong (08)35510041 25, PHAN DANG LUU, P. 3, Q. BINH THANH"},{"Name":"Đại Lý SYM Mạnh Quân 3","Address":"548, 3 Tháng 2, P. 14, Q. 10","Phone":"(08)38665551","Lat":10.7663951179037,"Long":106.664612864935,"Tag":"Dai Ly Sym Manh Quan 3 (08)38665551 548, 3 THANG 2, P. 14, Q. 10"},{"Name":"Công Ty TNHH TMDV Tín Phong - SYM","Address":"46A, Nguyễn Văn Trỗi, P. 15, Q. Phú Nhuận","Phone":"(08)38451900","Lat":10.7936133759643,"Long":106.678732013186,"Tag":"Cong Ty TNHH TMDV Tin Phong - SYM (08)38451900 46A, NGUYEN VAN TROI, P. 15, Q. PHU NHUAN"},{"Name":"Công Ty TNHH Phú Lộc - Đại Lý SYM","Address":"428, Hoàng Văn Thụ, P. 4, Q. Tân Bình","Phone":"(08)38444121","Lat":10.7956421310249,"Long":106.65608344027,"Tag":"Cong Ty TNHH Phu Loc - Dai Ly SYM (08)38444121 428, HOANG VAN THU, P. 4, Q. TAN BINH"},{"Name":"Đại Lý Xe Máy SYM & Vmep Phú Lộc","Address":"401-403, Nguyễn Kiệm, P. 9, Q. Phú Nhuận","Phone":"(08)38440137","Lat":10.8003161197689,"Long":106.67981026121,"Tag":"Dai Ly Xe May SYM & Vmep Phu Loc (08)38440137 401-403, NGUYEN KIEM, P. 9, Q. PHU NHUAN"},{"Name":"Cửa Hàng SYM Tín Phát","Address":"100-102, Võ Văn Ngân, P. Bình Thọ, Q. Thủ Đức","Phone":"(08)38970101","Lat":10.8505661188053,"Long":106.760153150024,"Tag":"Cua Hang SYM Tin Phat (08)38970101, (08)37224747 100-102, VO VAN NGAN, P. BINH THO, Q. THU DUC"},